{"上海市":{"data":[{"title":"华亭宾馆","address":"上海市徐汇区漕溪北路1200号","location":{"lat":31.181481698,"lng":121.435403349},"id":"6224a69f6224b53c2f502a98","x":{"class":"2022年03月28日 更新","level":"中风险场所","parent_polygon_ids":"","source":"","tags":"中风险场所"},"_distance":6543.51904,"ud_id":"13092697798288874479","polygon":"31.182271,121.435099;31.182181,121.436063;31.181184,121.435935;31.18101,121.435814;31.180869,121.435661;31.180649,121.435297;31.180762,121.434881;31.181753,121.434948;31.181755,121.435077;31.182271,121.435099","tel":""},{"title":"鹏飞路411弄6号","address":"上海市浦东新区","location":{"lat":31.170995,"lng":121.556055},"id":"623ae692baa96039ea9b0f47","x":{"class":"2022年03月28日 更新","level":"中风险场所","parent_polygon_ids":"","source":"","tags":"中风险场所"},"_distance":10244.2031,"ud_id":"1683557725426460909","polygon":"31.171068,121.555905;31.170888,121.555956;31.170925,121.556212;31.1711,121.556149;31.171068,121.555905","tel":""},{"title":"日京路88号","address":"上海市浦东新区","location":{"lat":31.341911,"lng":121.59519100000001},"id":"623834967430085e6d4722f4","x":{"class":"2022年03月29日 更新","level":"中风险场所","parent_polygon_ids":"","source":"","tags":"中风险场所"},"_distance":16944.3457,"ud_id":"6500303367453274577","polygon":"31.341556,121.594875;31.341918,121.594678;31.342268,121.59551;31.341904,121.595703;31.341556,121.594875","tel":""},{"title":"许泾村八组","address":"上海市闵行区","location":{"lat":31.073188,"lng":121.435961},"id":"623ae5473a9e8b6057451680","x":{"class":"2022年03月28日 更新","level":"中风险场所","parent_polygon_ids":"","source":"","tags":"中风险场所"},"_distance":17843.0137,"ud_id":"1325545478683638922","polygon":"31.073214,121.435905;31.073138,121.435936;31.073165,121.436017;31.073235,121.435989;31.073214,121.435905","tel":""},{"title":"浦东新区民乐幼儿园","address":"上海市浦东新区惠南镇民乐村听悦路920号民乐幼儿园","location":{"lat":31.05914573941385,"lng":121.73908432057489},"id":"6231ab7c7430085e6d2ae0c8","x":{"class":"2022年03月27日 更新","level":"中风险场所","parent_polygon_ids":"","source":"","tags":"中风险场所"},"_distance":31628.4824,"ud_id":"7896638348255065540","polygon":"31.059505,121.738687;31.059585,121.739625;31.058888,121.739612;31.05874,121.738707;31.059505,121.738687","tel":""}],"length":5},"云南省_德宏傣族景颇族自治州":{"data":[{"title":"畹町镇民主街片区","address":"云南省德宏傣族景颇族自治州瑞丽市","location":{"lat":24.077683,"lng":98.06553},"id":"6220d05146e74211d48d05e6","x":{"class":"2022年03月21日 更新","level":"中风险场所","parent_polygon_ids":"","source":"","tags":"中风险场所"},"_distance":65779.7344,"ud_id":"2909183953185965084","polygon":"24.077686,98.065496;24.077655,98.065529;24.077681,98.065566;24.07771,98.06553;24.077686,98.065496","tel":""},{"title":"姐告国门社区","address":"云南省德宏傣族景颇族自治州瑞丽市国门大道181号东80米","location":{"lat":23.978365,"lng":97.888324},"id":"6220d052e00ce84d99919cbb","x":{"class":"2022年03月29日 更新","level":"中风险场所","parent_polygon_ids":"","source":"","tags":"中风险场所"},"_distance":86822.9453,"ud_id":"11180345223121555968","polygon":"23.990448,97.88475;23.99035,97.88415;23.989742,97.883699;23.988076,97.883549;23.984684,97.882626;23.975823,97.881038;23.973195,97.880942;23.972999,97.881044;23.97294,97.881306;23.972965,97.881607;23.973004,97.882106;23.973004,97.882395;23.972921,97.882862;23.972715,97.8835;23.972176,97.884391;23.971666,97.886596;23.971695,97.887513;23.971725,97.88821;23.971872,97.888543;23.971955,97.889037;23.972122,97.889562;23.973097,97.890185;23.973489,97.890893;23.973318,97.891268;23.973607,97.891697;23.973808,97.891874;23.973901,97.893586;23.974303,97.895232;23.975729,97.896713;23.977117,97.897378;23.980763,97.897174;23.9809,97.897024;23.980905,97.896831;23.980601,97.894868;23.981435,97.892663;23.98143,97.892105;23.982229,97.890539;23.982273,97.890254;23.982327,97.889873;23.982371,97.88938;23.982537,97.889069;23.98291,97.888843;23.983679,97.888001;23.987238,97.886639;23.98835,97.886537;23.990428,97.884879;23.990448,97.88475","tel":""},{"title":"弄喊二村","address":"云南省德宏傣族景颇族自治州瑞丽市","location":{"lat":23.980939,"lng":97.869665},"id":"62259ef72cde8b1f007cb28d","x":{"class":"2022年03月21日 更新","level":"中风险场所","parent_polygon_ids":"","source":"","tags":"中风险场所"},"_distance":88205.7,"ud_id":"1594692133425298473","polygon":"23.98242,97.866597;23.983253,97.867112;23.982969,97.869097;23.982694,97.870095;23.982528,97.871146;23.982351,97.871672;23.982116,97.872219;23.981567,97.872434;23.981224,97.872632;23.980724,97.87231;23.979989,97.872096;23.979915,97.872289;23.979425,97.872289;23.979459,97.871876;23.978572,97.871801;23.978896,97.868941;23.979072,97.868276;23.979734,97.868276;23.980685,97.866409;23.980979,97.865406;23.982459,97.866383;23.98242,97.866597","tel":""}],"length":3},"云南省_红河哈尼族彝族自治州":{"data":[{"title":"金水河镇","address":"云南省红河哈尼族彝族自治州金平苗族瑶族傣族自治县","location":{"lat":22.601174,"lng":103.165183},"id":"623ecc5d9c07b431d4d264f2","x":{"class":"2022年03月28日 更新","level":"中风险场所","parent_polygon_ids":"","source":"","tags":"中风险场所"},"_distance":87538.4141,"ud_id":"2212646909660911807","polygon":"22.603314,103.160269;22.604839,103.163509;22.604681,103.164861;22.606919,103.166728;22.605711,103.167715;22.604324,103.168252;22.601888,103.16853;22.601551,103.169174;22.600462,103.170011;22.599491,103.170118;22.596143,103.167586;22.595727,103.164711;22.59753,103.162791;22.599481,103.161997;22.603314,103.160269","tel":""},{"title":"紫檀星苑","address":"云南省红河哈尼族彝族自治州河口瑶族自治县人民路与气象路交叉路口往西约150米","location":{"lat":22.511075,"lng":103.957357},"id":"622ff84201ff761f8018f74e","x":{"class":"2022年03月27日 更新","level":"中风险场所","parent_polygon_ids":"","source":"","tags":"中风险场所"},"_distance":112019.516,"ud_id":"8477778382861589170","polygon":"22.512151,103.956454;22.51217,103.956366;22.512157,103.956254;22.512136,103.956207;22.512111,103.956151;22.512059,103.956084;22.511971,103.956014;22.511862,103.955915;22.511828,103.955898;22.511787,103.955909;22.511701,103.955947;22.510763,103.956451;22.510678,103.956546;22.510621,103.956623;22.510547,103.956734;22.51048,103.956845;22.510385,103.957163;22.510279,103.957608;22.509976,103.959;22.510385,103.959373;22.510439,103.959354;22.510506,103.959293;22.510862,103.958775;22.510938,103.958669;22.51101,103.958548;22.511397,103.957814;22.512151,103.956454","tel":""}],"length":2},"内蒙古自治区_包头市":{"data":[{"title":"熙华公寓","address":"内蒙古自治区包头市昆都仑区市府西路与乌兰道交叉口","location":{"lat":40.659115,"lng":109.835631},"id":"622402b82e0d285e0d9133df","x":{"class":"2022年03月28日 更新","level":"管控区","parent_polygon_ids":"","source":"人不出区、严禁聚集","tags":"管控区"},"_distance":412.616119,"ud_id":"16986541271860951860","polygon":"40.659356,109.834933;40.658947,109.834877;40.658931,109.835488;40.658915,109.836153;40.659216,109.836164;40.659269,109.836143;40.659299,109.836078;40.659356,109.834933","tel":""},{"title":"佳园小区29号楼","address":"内蒙古自治区包头市昆都仑区","location":{"lat":40.65962,"lng":109.834594},"id":"62255ad94021122582570bd8","x":{"class":"2022年03月25日 更新","level":"管控区","parent_polygon_ids":"","source":"人不出区、严禁聚集","tags":"管控区"},"_distance":514.712219,"ud_id":"1382926079171548244","polygon":"40.659734,109.833965;40.659557,109.833949;40.659507,109.835228;40.659684,109.835236;40.659734,109.833965","tel":""},{"title":"钢19住宅小区","address":"内蒙古自治区包头市昆都仑区阿尔丁街道乌兰道南侧","location":{"lat":40.659236,"lng":109.83334300000001},"id":"62255b04e00ce84d999ccee3","x":{"class":"2022年03月25日 更新","level":"防范区","parent_polygon_ids":"","source":"强化社会面管控，严格限制人员聚集","tags":"防范区"},"_distance":600.569031,"ud_id":"1278786599234501898","polygon":"40.65949,109.832605;40.659156,109.832577;40.659078,109.83482;40.659391,109.834851;40.659462,109.833342;40.65949,109.832605","tel":""},{"title":"锡华世纪花园玫瑰苑4号楼","address":"内蒙古自治区包头市昆都仑区","location":{"lat":40.652836,"lng":109.845712},"id":"622404f7cc522e75ce48f546","x":{"class":"2022年03月23日 更新","level":"管控区","parent_polygon_ids":"","source":"人不出区、严禁聚集","tags":"管控区"},"_distance":722.025818,"ud_id":"3179992013824749228","polygon":"40.652959,109.844964;40.652723,109.844967;40.652731,109.845721;40.652678,109.84645;40.652904,109.846453;40.652959,109.845726;40.652959,109.844964","tel":""},{"title":"锡华世纪花园","address":"内蒙古自治区包头市昆都仑区少先路","location":{"lat":40.653343,"lng":109.84722},"id":"6224041c40211225825438d6","x":{"class":"2022年03月28日 更新","level":"防范区","parent_polygon_ids":"","source":"强化社会面管控，严格限制人员聚集","tags":"防范区"},"_distance":772.268677,"ud_id":"3347461141999133186","polygon":"40.655393,109.845225;40.655077,109.845214;40.655067,109.845372;40.654713,109.845463;40.65444,109.845442;40.654345,109.845439;40.6543,109.846287;40.653323,109.846225;40.653411,109.844079;40.652411,109.844012;40.652171,109.848813;40.654157,109.848958;40.654214,109.847596;40.654927,109.847623;40.655012,109.847322;40.655077,109.846775;40.655347,109.846784;40.655393,109.845225","tel":""},{"title":"佳园小区","address":"内蒙古自治区包头市昆都仑区青年路","location":{"lat":40.662646,"lng":109.83316},"id":"6226abc97d6eff766f898d4d","x":{"class":"2022年03月28日 更新","level":"防范区","parent_polygon_ids":"","source":"强化社会面管控，严格限制人员聚集","tags":"防范区"},"_distance":801.751221,"ud_id":"13542842826323124615","polygon":"40.663584,109.831717;40.66203,109.831586;40.66191,109.834093;40.663456,109.83423;40.663584,109.831717","tel":""},{"title":"恩和小区3区5号楼","address":"内蒙古自治区包头市昆都仑区","location":{"lat":40.649652,"lng":109.843275},"id":"622404c52e36805c5c9b9310","x":{"class":"2022年03月22日 更新","level":"管控区","parent_polygon_ids":"","source":"人不出区、严禁聚集","tags":"管控区"},"_distance":943.260742,"ud_id":"1886274568562647899","polygon":"40.649913,109.843171;40.649905,109.843316;40.649881,109.843367;40.649486,109.843332;40.64949,109.843175;40.649631,109.843176;40.649645,109.843133;40.649785,109.843141;40.649783,109.843273;40.649824,109.843273;40.64983,109.843163;40.649913,109.843171","tel":""},{"title":"恩和小区","address":"内蒙古自治区包头市昆都仑区友谊大街93号","location":{"lat":40.647987,"lng":109.841281},"id":"6224021e2cde8b1f00780381","x":{"class":"2022年03月28日 更新","level":"防范区","parent_polygon_ids":"","source":"强化社会面管控，严格限制人员聚集","tags":"防范区"},"_distance":1096.00366,"ud_id":"13143273690405453530","polygon":"40.650134,109.839908;40.649957,109.843551;40.648443,109.843433;40.648492,109.841926;40.647393,109.841861;40.64734,109.843352;40.64592,109.843251;40.646095,109.839571;40.650134,109.839908","tel":""},{"title":"华丰园13栋","address":"内蒙古自治区包头市昆都仑区","location":{"lat":40.656011,"lng":109.807126},"id":"622402db7d6eff766f82558b","x":{"class":"2022年03月21日 更新","level":"管控区","parent_polygon_ids":"","source":"人不出区、严禁聚集","tags":"管控区"},"_distance":2797.97681,"ud_id":"5272990747804780617","polygon":"40.656117,109.807;40.656115,109.807269;40.65595,109.807266;40.655954,109.806998;40.656117,109.807","tel":""},{"title":"华丰园","address":"内蒙古自治区包头市昆都仑区钢铁大街35号","location":{"lat":40.655049,"lng":109.807007},"id":"622401302f0e6771b66767aa","x":{"class":"2022年03月28日 更新","level":"防范区","parent_polygon_ids":"","source":"强化社会面管控，严格限制人员聚集","tags":"防范区"},"_distance":2817.64624,"ud_id":"1295426148563487654","polygon":"40.656218,109.806456;40.656184,109.807832;40.654194,109.807658;40.654252,109.806296;40.655234,109.806386;40.656218,109.806456","tel":""},{"title":"傲北上城","address":"内蒙古自治区包头市昆都仑区天才宝贝幼儿园西(阿尔丁北大街)","location":{"lat":40.688076,"lng":109.84031100000001},"id":"6226dcad06bcb060e3654505","x":{"class":"2022年03月28日 更新","level":"防范区","parent_polygon_ids":"","source":"强化社会面管控，严格限制人员聚集","tags":"防范区"},"_distance":3365.4375,"ud_id":"16516541581790843845","polygon":"40.689519,109.839634;40.689299,109.840251;40.688925,109.84097;40.688423,109.842611;40.687594,109.842532;40.686612,109.842463;40.68656,109.842409;40.687355,109.838093;40.689597,109.838254;40.689519,109.839634","tel":""},{"title":"傲北上城北区7号楼","address":"内蒙古自治区包头市昆都仑区","location":{"lat":40.688396,"lng":109.841447},"id":"6226ab4bb409be14af886ffc","x":{"class":"2022年03月27日 更新","level":"管控区","parent_polygon_ids":"","source":"人不出区、严禁聚集","tags":"管控区"},"_distance":3402.61108,"ud_id":"864009001886241258","polygon":"40.68864,109.840981;40.688432,109.840901;40.688208,109.841738;40.688261,109.841802;40.68844,109.841818;40.68864,109.840981","tel":""},{"title":"钢铁大街37号街坊6栋","address":"内蒙古自治区包头市昆都仑区","location":{"lat":40.659505,"lng":109.799358},"id":"62255d8970d5b775397db287","x":{"class":"2022年03月27日 更新","level":"管控区","parent_polygon_ids":"","source":"人不出区、严禁聚集","tags":"管控区"},"_distance":3451.15,"ud_id":"11348825562323948655","polygon":"40.659465,109.799064;40.659443,109.799649;40.659549,109.799653;40.659564,109.799069;40.659465,109.799064","tel":""},{"title":"青福新城2栋","address":"内蒙古自治区包头市青山区","location":{"lat":40.697008,"lng":109.871266},"id":"621f24d8ffcda50392642e90","x":{"class":"2022年03月25日 更新","level":"防范区","parent_polygon_ids":"","source":"强化社会面管控，严格限制人员聚集","tags":"防范区"},"_distance":5084.91602,"ud_id":"13614890950089346402","polygon":"40.697053,109.871736;40.696827,109.87166;40.696963,109.870802;40.697197,109.870872;40.697053,109.871736","tel":""},{"title":"稀土大街-幸福南路合围区域","address":"内蒙古自治区包头市九原区","location":{"lat":40.612683543041626,"lng":109.86065906452077},"id":"621dea94c936bf18ae2ba8be","x":{"class":"2022年03月24日 更新","level":"防范区","parent_polygon_ids":"","source":"强化社会面管控，严格限制人员聚集","tags":"防范区"},"_distance":5306.24707,"ud_id":"1487231434402335683","polygon":"40.617029,109.856689;40.609277,109.856093;40.608875,109.86464;40.6166,109.865256;40.617029,109.856689","tel":""},{"title":"沃土阳光","address":"内蒙古自治区包头市九原区幸福南路","location":{"lat":40.612015,"lng":109.862446},"id":"621dea872cde8b1f0054c6e0","x":{"class":"2022年03月28日 更新","level":"防范区","parent_polygon_ids":"1487231434402335683","source":"强化社会面管控，严格限制人员聚集","tags":"防范区"},"_distance":5426.875,"ud_id":"8787616625322208933","polygon":"40.612909,109.86023;40.611349,109.86013;40.611106,109.864639;40.612699,109.864787;40.612909,109.86023","tel":""},{"title":"铭峰佳苑小区南区","address":"内蒙古自治区包头市青山区铭峰家苑S2-06东北方向160米","location":{"lat":40.699812,"lng":109.8751034898241},"id":"622ebaba2e560346c89c42ea","x":{"class":"2022年03月21日 更新","level":"防范区","parent_polygon_ids":"","source":"强化社会面管控，严格限制人员聚集","tags":"防范区"},"_distance":5520.04883,"ud_id":"13129749487171439575","polygon":"40.701136,109.873924;40.697952,109.873081;40.69774,109.874229;40.697309,109.875323;40.70052,109.876235;40.701136,109.873924","tel":""},{"title":"铭峰佳苑小区北区","address":"内蒙古自治区包头市青山区银海路东150米","location":{"lat":40.701769,"lng":109.875267},"id":"622ebe31e3a686216826cbc9","x":{"class":"2022年03月21日 更新","level":"管控区","parent_polygon_ids":"","source":"人不出区、严禁聚集","tags":"管控区"},"_distance":5712.44531,"ud_id":"16149849197578383611","polygon":"40.703481,109.87447;40.701348,109.873907;40.700682,109.876335;40.702802,109.876928;40.703481,109.87447","tel":""}],"length":18},"内蒙古自治区_呼和浩特市":{"data":[{"title":"万达广场1期工程-7号楼","address":"内蒙古自治区呼和浩特市赛罕区","location":{"lat":40.834538,"lng":111.736699},"id":"621ce8456224b53c2f258ef6","x":{"class":"2022年03月28日 更新","level":"封控区","parent_polygon_ids":"","source":"区域封闭、足不出户、服务上门","tags":"封控区"},"_distance":1500.77515,"ud_id":"12749238990645417644","polygon":"40.834557,111.736254;40.834352,111.736324;40.834522,111.737153;40.834721,111.737067;40.834557,111.736254","tel":""},{"title":"巨华世纪城聚泽园13栋","address":"内蒙古自治区呼和浩特市新城区","location":{"lat":40.844977,"lng":111.729649},"id":"621ce84371bdf97bbb5679ef","x":{"class":"2022年03月21日 更新","level":"封控区","parent_polygon_ids":"","source":"区域封闭、足不出户、服务上门","tags":"封控区"},"_distance":1918.89429,"ud_id":"7397996490462724130","polygon":"40.844979,111.729112;40.844753,111.729195;40.844977,111.730191;40.845202,111.730099;40.844979,111.729112","tel":""},{"title":"世纪庄园C区C3号楼","address":"内蒙古自治区呼和浩特市赛罕区","location":{"lat":40.824018,"lng":111.731287},"id":"621ce844651cba25e878ad80","x":{"class":"2022年03月26日 更新","level":"封控区","parent_polygon_ids":"","source":"区域封闭、足不出户、服务上门","tags":"封控区"},"_distance":2609.28149,"ud_id":"1670772485079875061","polygon":"40.824064,111.731126;40.823916,111.73117;40.823982,111.731453;40.824113,111.731402;40.824064,111.731126","tel":""},{"title":"巨华·巨海城5区11栋","address":"内蒙古自治区呼和浩特市赛罕区","location":{"lat":40.819626,"lng":111.73607},"id":"621ce84446e74211d47097be","x":{"class":"2022年03月27日 更新","level":"封控区","parent_polygon_ids":"","source":"区域封闭、足不出户、服务上门","tags":"封控区"},"_distance":2775.729,"ud_id":"9733950727735642380","polygon":"40.81956,111.735396;40.819383,111.73546;40.8197,111.736748;40.819862,111.736678;40.81956,111.735396","tel":""},{"title":"芳汀花园11号楼","address":"内蒙古自治区呼和浩特市新城区","location":{"lat":40.83515967891372,"lng":111.71604740693753},"id":"621ce84346e74211d47097b5","x":{"class":"2022年03月24日 更新","level":"封控区","parent_polygon_ids":"","source":"区域封闭、足不出户、服务上门","tags":"封控区"},"_distance":3104.54199,"ud_id":"18235348251317943124","polygon":"40.835159,111.715576;40.8349,111.715668;40.835096,111.716519;40.835365,111.71643;40.835159,111.715576","tel":""},{"title":"红三楼小区","address":"内蒙古自治区呼和浩特市赛罕区什兰岱街","location":{"lat":40.840754,"lng":111.792033},"id":"6220cf21ad2967482b548d97","x":{"class":"2022年03月28日 更新","level":"封控区","parent_polygon_ids":"","source":"区域封闭、足不出户、服务上门","tags":"封控区"},"_distance":3369.48462,"ud_id":"7913416741842260059","polygon":"40.840943,111.791307;40.840326,111.791489;40.84059,111.792769;40.841158,111.792567;40.840943,111.791307","tel":""},{"title":"呼铁佳园","address":"内蒙古自治区呼和浩特市新城区海拉尔东街","location":{"lat":40.841937,"lng":111.71158500000001},"id":"621ce84314c15a16ea7155b8","x":{"class":"2022年03月29日 更新","level":"封控区","parent_polygon_ids":"","source":"区域封闭、足不出户、服务上门","tags":"封控区"},"_distance":3399.2854,"ud_id":"3431673973089666627","polygon":"40.842795,111.706485;40.841636,111.70691;40.841403,111.705905;40.841044,111.706031;40.839709,111.706536;40.839819,111.707116;40.839553,111.707175;40.83925,111.707399;40.83906,111.707549;40.838779,111.707648;40.839299,111.710192;40.83953,111.711166;40.839835,111.712612;40.84001,111.713445;40.840184,111.714235;40.840358,111.715036;40.840566,111.716;40.84088,111.717251;40.841587,111.717011;40.841953,111.716878;40.842052,111.716854;40.84215,111.716838;40.842331,111.716856;40.842768,111.716701;40.844169,111.71617;40.844845,111.715891;40.844236,111.71311;40.843895,111.711604;40.843818,111.711534;40.843787,111.711495;40.843765,111.711431;40.843755,111.711392;40.843749,111.711347;40.843743,111.711304;40.843737,111.711262;40.843737,111.711065;40.843783,111.71103;40.843726,111.710753;40.84347,111.709604;40.841831,111.710224;40.841574,111.709086;40.843211,111.70848;40.842795,111.706485","tel":""},{"title":"奈伦国际D座","address":"内蒙古自治区呼和浩特市新城区新华大街奈伦国际","location":{"lat":40.833214,"lng":111.71238},"id":"621ce8432cde8b1f004df2fe","x":{"class":"2022年03月25日 更新","level":"封控区","parent_polygon_ids":"","source":"区域封闭、足不出户、服务上门","tags":"封控区"},"_distance":3456.99878,"ud_id":"23373928731900885","polygon":"40.833402,111.711954;40.832893,111.712141;40.833026,111.712807;40.833528,111.712616;40.833402,111.711954","tel":""},{"title":"香格里C区2号楼","address":"内蒙古自治区呼和浩特市赛罕区","location":{"lat":40.812287,"lng":111.767284},"id":"621ce844ad2967482b3859b8","x":{"class":"2022年03月25日 更新","level":"封控区","parent_polygon_ids":"","source":"区域封闭、足不出户、服务上门","tags":"封控区"},"_distance":3492.91602,"ud_id":"6007895021343223644","polygon":"40.812161,111.766606;40.812035,111.76663;40.812055,111.766915;40.812185,111.768068;40.812311,111.768028;40.812354,111.767883;40.812388,111.767769;40.812419,111.76765;40.812421,111.767494;40.812415,111.767345;40.812394,111.767179;40.812352,111.76703;40.812327,111.766976;40.812286,111.766923;40.812214,111.766774;40.812161,111.766606","tel":""},{"title":"金汉御园南区5栋","address":"内蒙古自治区呼和浩特市赛罕区","location":{"lat":40.820616,"lng":111.720873},"id":"621ce844c936bf18ae24d540","x":{"class":"2022年03月21日 更新","level":"封控区","parent_polygon_ids":"","source":"区域封闭、足不出户、服务上门","tags":"封控区"},"_distance":3498.78687,"ud_id":"18084065225760081066","polygon":"40.820583,111.720451;40.820451,111.72051;40.820646,111.721293;40.820786,111.721239;40.820583,111.720451","tel":""},{"title":"巨华·朗域5栋","address":"内蒙古自治区呼和浩特市赛罕区","location":{"lat":40.828547,"lng":111.712287},"id":"621ce844fad0244ef23ba483","x":{"class":"2022年03月26日 更新","level":"封控区","parent_polygon_ids":"","source":"区域封闭、足不出户、服务上门","tags":"封控区"},"_distance":3637.07056,"ud_id":"2207011874755076256","polygon":"40.828555,111.711708;40.828318,111.711795;40.828541,111.712863;40.828775,111.712786;40.828555,111.711708","tel":""},{"title":"华润置地幸福里13号楼","address":"内蒙古自治区呼和浩特市新城区华润置地","location":{"lat":40.87643,"lng":111.741117},"id":"6220cf346224b53c2f419bed","x":{"class":"2022年03月21日 更新","level":"封控区","parent_polygon_ids":"","source":"区域封闭、足不出户、服务上门","tags":"封控区"},"_distance":3991.31299,"ud_id":"1921778983453401759","polygon":"40.876442,111.740664;40.876212,111.740771;40.876423,111.741573;40.876646,111.741463;40.876442,111.740664","tel":""},{"title":"先锋小区内三建宿舍楼03号楼","address":"内蒙古自治区呼和浩特市赛罕区","location":{"lat":40.823892,"lng":111.709613},"id":"621ce845486fa861313afa9f","x":{"class":"2022年03月26日 更新","level":"封控区","parent_polygon_ids":"","source":"区域封闭、足不出户、服务上门","tags":"封控区"},"_distance":4066.99536,"ud_id":"246604362196317102","polygon":"40.823906,111.709317;40.823753,111.709371;40.823871,111.709923;40.82404,111.709845;40.823906,111.709317","tel":""},{"title":"邮电长乐小区11号楼","address":"内蒙古自治区呼和浩特市赛罕区","location":{"lat":40.828151,"lng":111.706796},"id":"621ce844cfb02b66d87df598","x":{"class":"2022年03月25日 更新","level":"封控区","parent_polygon_ids":"","source":"区域封闭、足不出户、服务上门","tags":"封控区"},"_distance":4081.23828,"ud_id":"14556237281996252050","polygon":"40.828125,111.706318;40.827971,111.70638;40.828176,111.707273;40.828334,111.707214;40.828125,111.706318","tel":""},{"title":"集通佳苑3号楼","address":"内蒙古自治区呼和浩特市新城区","location":{"lat":40.862614,"lng":111.705116},"id":"621ce8433bc5604c616cb06f","x":{"class":"2022年03月21日 更新","level":"封控区","parent_polygon_ids":"","source":"区域封闭、足不出户、服务上门","tags":"封控区"},"_distance":4589.16553,"ud_id":"18199957799723616014","polygon":"40.862822,111.704787;40.862467,111.704721;40.862395,111.705447;40.862741,111.705507;40.862822,111.704787","tel":""},{"title":"塞外康居","address":"内蒙古自治区呼和浩特市新城区","location":{"lat":40.882098659,"lng":111.739304985},"id":"621ce84371bdf97bbb5679f2","x":{"class":"2022年03月28日 更新","level":"封控区","parent_polygon_ids":"","source":"区域封闭、足不出户、服务上门","tags":"封控区"},"_distance":4639.77783,"ud_id":"10150286207924645813","polygon":"40.882911,111.736418;40.879715,111.737952;40.880538,111.741353;40.883677,111.739851;40.882911,111.736418","tel":""},{"title":"小台什颐和家园6号楼","address":"内蒙古自治区呼和浩特市赛罕区","location":{"lat":40.794267,"lng":111.730111},"id":"621ce844cfb02b66d87df592","x":{"class":"2022年03月28日 更新","level":"封控区","parent_polygon_ids":"","source":"区域封闭、足不出户、服务上门","tags":"封控区"},"_distance":5564.39697,"ud_id":"1973391624602609680","polygon":"40.79427,111.729513;40.794099,111.729557;40.794271,111.730704;40.794428,111.730673;40.79427,111.729513","tel":""},{"title":"金三角公寓","address":"内蒙古自治区呼和浩特市新城区鸿盛高科技园区国飞中学南","location":{"lat":40.875183,"lng":111.801506},"id":"62361528ae71b1655e8468bd","x":{"class":"2022年03月28日 更新","level":"封控区","parent_polygon_ids":"","source":"区域封闭、足不出户、服务上门","tags":"封控区"},"_distance":5601.56641,"ud_id":"16875973574317046799","polygon":"40.87529,111.801027;40.875079,111.801023;40.875079,111.80199;40.875285,111.801986;40.87529,111.801027","tel":""},{"title":"公园世家小区5号楼","address":"内蒙古自治区呼和浩特市新城区","location":{"lat":40.854034,"lng":111.684236},"id":"621ce84362dec4635d78576c","x":{"class":"2022年03月21日 更新","level":"封控区","parent_polygon_ids":"","source":"区域封闭、足不出户、服务上门","tags":"封控区"},"_distance":5867.23877,"ud_id":"8272287659336269594","polygon":"40.854086,111.683831;40.853885,111.683868;40.853983,111.684649;40.854182,111.684598;40.854086,111.683831","tel":""},{"title":"哈拉更新村C区","address":"内蒙古自治区呼和浩特市新城区哈拉更新村","location":{"lat":40.897281,"lng":111.74812600000001},"id":"621ce84346e74211d47097b2","x":{"class":"2022年03月21日 更新","level":"封控区","parent_polygon_ids":"","source":"区域封闭、足不出户、服务上门","tags":"封控区"},"_distance":6212.18506,"ud_id":"1508519628697425388","polygon":"40.89855,111.746777;40.895645,111.748107;40.896012,111.749486;40.898919,111.748134;40.89855,111.746777","tel":""},{"title":"蒙幼楼","address":"内蒙古自治区呼和浩特市新城区艺术厅南街9号院","location":{"lat":40.821548,"lng":111.682841},"id":"621ce84314c15a16ea7155bb","x":{"class":"2022年03月27日 更新","level":"封控区","parent_polygon_ids":"","source":"区域封闭、足不出户、服务上门","tags":"封控区"},"_distance":6226.06152,"ud_id":"14097337238464751412","polygon":"40.821767,111.683208;40.821566,111.682414;40.82134,111.682499;40.821534,111.683304;40.821767,111.683208","tel":""},{"title":"石头新营村","address":"内蒙古自治区呼和浩特市新城区","location":{"lat":40.87591,"lng":111.682774},"id":"6220cf2214c15a16ea8d9170","x":{"class":"2022年03月21日 更新","level":"封控区","parent_polygon_ids":"","source":"区域封闭、足不出户、服务上门","tags":"封控区"},"_distance":6966.56201,"ud_id":"2650812201275131153","polygon":"40.872251,111.676256;40.87114,111.676857;40.870061,111.677479;40.874081,111.689109;40.875612,111.689705;40.876365,111.689992;40.87674,111.690131;40.877125,111.690249;40.883296,111.686776;40.881927,111.683868;40.879626,111.680006;40.876713,111.675881;40.874194,111.677002;40.873618,111.675526;40.872251,111.676256","tel":""},{"title":"供电局宿舍(文化宫路)","address":"内蒙古自治区呼和浩特市回民区新华大街77号东北方向149米","location":{"lat":40.822025,"lng":111.663622},"id":"621ce8442cde8b1f004df304","x":{"class":"2022年03月29日 更新","level":"封控区","parent_polygon_ids":"","source":"区域封闭、足不出户、服务上门","tags":"封控区"},"_distance":7743.3916,"ud_id":"18128974947027591123","polygon":"40.822331,111.66282;40.822301,111.663548;40.822312,111.664165;40.821997,111.664171;40.821786,111.664162;40.821733,111.66281;40.822331,111.66282","tel":""},{"title":"金宇新天地-2号楼","address":"内蒙古自治区呼和浩特市玉泉区","location":{"lat":40.795276,"lng":111.677853},"id":"621ce843ad2967482b3859b5","x":{"class":"2022年03月25日 更新","level":"封控区","parent_polygon_ids":"","source":"区域封闭、足不出户、服务上门","tags":"封控区"},"_distance":8082.5874,"ud_id":"14839831486646862218","polygon":"40.79524,111.677334;40.795043,111.677423;40.795316,111.67838;40.795506,111.678276;40.79524,111.677334","tel":""},{"title":"五塔花园1号楼","address":"内蒙古自治区呼和浩特市玉泉区","location":{"lat":40.79982956666638,"lng":111.67079668472596},"id":"621ce843c936bf18ae24d53d","x":{"class":"2022年03月28日 更新","level":"封控区","parent_polygon_ids":"","source":"区域封闭、足不出户、服务上门","tags":"封控区"},"_distance":8254.6416,"ud_id":"3434137622463929482","polygon":"40.799795,111.670355;40.799598,111.670453;40.799641,111.670607;40.799711,111.670589;40.799959,111.671431;40.800085,111.671358;40.799795,111.670355","tel":""},{"title":"友谊巷社区","address":"内蒙古自治区呼和浩特市回民区通道南路","location":{"lat":40.814013,"lng":111.65704},"id":"62343cbe86e30f3a374e91cd","x":{"class":"2022年03月23日 更新","level":"中风险场所","parent_polygon_ids":"","source":"","tags":"中风险场所"},"_distance":8553.3,"ud_id":"3313818344806337638","polygon":"40.814122,111.656915;40.814123,111.657182;40.813924,111.657184;40.813922,111.656917;40.814122,111.656915","tel":""},{"title":"建和嘉园3号楼","address":"内蒙古自治区呼和浩特市赛罕区","location":{"lat":40.77722,"lng":111.694261},"id":"6220cf257bf4c80d561d9086","x":{"class":"2022年03月21日 更新","level":"封控区","parent_polygon_ids":"","source":"区域封闭、足不出户、服务上门","tags":"封控区"},"_distance":8641.68066,"ud_id":"1144950837546400057","polygon":"40.77719,111.693707;40.776983,111.693792;40.777261,111.694828;40.777448,111.69472;40.77719,111.693707","tel":""},{"title":"坤泰小区3号楼","address":"内蒙古自治区呼和浩特市玉泉区坤泰小区","location":{"lat":40.789292,"lng":111.66707},"id":"621ce843ad2967482b3859b2","x":{"class":"2022年03月24日 更新","level":"封控区","parent_polygon_ids":"","source":"区域封闭、足不出户、服务上门","tags":"封控区"},"_distance":9206.49,"ud_id":"2957167425180840162","polygon":"40.789199,111.666506;40.789065,111.666563;40.789393,111.667635;40.789512,111.667576;40.789199,111.666506","tel":""},{"title":"金桥·南景苑2栋","address":"内蒙古自治区呼和浩特市赛罕区","location":{"lat":40.755123,"lng":111.723567},"id":"621ce84571bdf97bbb567a00","x":{"class":"2022年03月21日 更新","level":"封控区","parent_polygon_ids":"","source":"区域封闭、足不出户、服务上门","tags":"封控区"},"_distance":9897.12891,"ud_id":"6924641183854223506","polygon":"40.755205,111.723008;40.755039,111.723;40.755037,111.724136;40.755212,111.724125;40.755205,111.723008","tel":""},{"title":"锦绣嘉苑C区15号楼","address":"内蒙古自治区呼和浩特市赛罕区","location":{"lat":40.753163,"lng":111.732973},"id":"621ce8442cde8b1f004df307","x":{"class":"2022年03月22日 更新","level":"封控区","parent_polygon_ids":"","source":"区域封闭、足不出户、服务上门","tags":"封控区"},"_distance":9951.13086,"ud_id":"3503304539936435568","polygon":"40.753243,111.732607;40.753093,111.732607;40.753083,111.733339;40.753235,111.733339;40.753243,111.732607","tel":""},{"title":"金河小区(县府街)","address":"内蒙古自治区呼和浩特市回民区常青花园1正东方向163米","location":{"lat":40.803405,"lng":111.643793},"id":"621ce843fad0244ef23ba480","x":{"class":"2022年03月29日 更新","level":"封控区","parent_polygon_ids":"","source":"区域封闭、足不出户、服务上门","tags":"封控区"},"_distance":10041.0449,"ud_id":"10745968147680492622","polygon":"40.803409,111.64426;40.803147,111.643455;40.803446,111.64331;40.80362,111.64415;40.803409,111.64426","tel":""},{"title":"富贵国际花苑","address":"内蒙古自治区呼和浩特市玉泉区鄂尔多斯大街南南茶坊维多利超市西","location":{"lat":40.789655,"lng":111.650426},"id":"621ce8433bc5604c616cb072","x":{"class":"2022年03月29日 更新","level":"封控区","parent_polygon_ids":"","source":"区域封闭、足不出户、服务上门","tags":"封控区"},"_distance":10308.9053,"ud_id":"10790389917147026810","polygon":"40.788797,111.649663;40.789206,111.649491;40.789366,111.649421;40.790464,111.649056;40.79101,111.648897;40.791298,111.648849;40.791598,111.648794;40.791913,111.648765;40.792267,111.648592;40.793539,111.649268;40.793305,111.649999;40.793167,111.650424;40.792895,111.650252;40.792464,111.650027;40.792381,111.649973;40.792288,111.649919;40.792196,111.649863;40.792028,111.649772;40.79181,111.650556;40.79156,111.651321;40.791517,111.651333;40.791438,111.651206;40.791358,111.651155;40.791151,111.651022;40.790885,111.650709;40.790333,111.650692;40.790302,111.650708;40.790279,111.650727;40.790264,111.650853;40.790233,111.65093;40.790179,111.651008;40.789915,111.65102;40.789682,111.651193;40.789655,111.651754;40.78964,111.652066;40.789628,111.65232;40.789701,111.652394;40.789798,111.652524;40.789844,111.652641;40.789863,111.652706;40.789896,111.652761;40.79016,111.652902;40.790242,111.65339;40.789543,111.653585;40.789365,111.653626;40.789271,111.653652;40.78917,111.653684;40.788751,111.653805;40.788327,111.653931;40.788029,111.654012;40.787943,111.653997;40.78789,111.653902;40.787874,111.653831;40.787932,111.653072;40.788011,111.652215;40.788103,111.65156;40.788254,111.650168;40.788463,111.650075;40.788535,111.649918;40.788629,111.649742;40.788664,111.649705;40.788797,111.649663","tel":""},{"title":"清水湾13号楼","address":"内蒙古自治区呼和浩特市回民区","location":{"lat":40.797854,"lng":111.643639},"id":"621ce84446e74211d47097bb","x":{"class":"2022年03月21日 更新","level":"封控区","parent_polygon_ids":"","source":"区域封闭、足不出户、服务上门","tags":"封控区"},"_distance":10328.335,"ud_id":"17876230520965124721","polygon":"40.797905,111.644112;40.797642,111.643256;40.79781,111.643168;40.798059,111.644021;40.797905,111.644112","tel":""},{"title":"呼市·新村佳园3号楼","address":"内蒙古自治区呼和浩特市回民区","location":{"lat":40.865353,"lng":111.627009},"id":"621f606670d5b775396ec596","x":{"class":"2022年03月21日 更新","level":"封控区","parent_polygon_ids":"","source":"区域封闭、足不出户、服务上门","tags":"封控区"},"_distance":10841.4287,"ud_id":"3358984277025319742","polygon":"40.8652,111.626725;40.865363,111.627355;40.865505,111.627294;40.865347,111.626662;40.8652,111.626725","tel":""},{"title":"咱家1区2号楼","address":"内蒙古自治区呼和浩特市回民区","location":{"lat":40.814461,"lng":111.62094},"id":"621ce84471bdf97bbb5679f7","x":{"class":"2022年03月23日 更新","level":"封控区","parent_polygon_ids":"","source":"区域封闭、足不出户、服务上门","tags":"封控区"},"_distance":11428.6426,"ud_id":"3819016454257884588","polygon":"40.814412,111.620488;40.814195,111.62064;40.814512,111.621397;40.814725,111.621236;40.814412,111.620488","tel":""},{"title":"阙里人家C区4栋","address":"内蒙古自治区呼和浩特市回民区","location":{"lat":40.801902,"lng":111.61502},"id":"621ce84462dec4635d78576f","x":{"class":"2022年03月21日 更新","level":"封控区","parent_polygon_ids":"","source":"区域封闭、足不出户、服务上门","tags":"封控区"},"_distance":12337.5898,"ud_id":"3944117260410204305","polygon":"40.801907,111.614481;40.801603,111.614643;40.801916,111.615559;40.802184,111.615399;40.801907,111.614481","tel":""},{"title":"塞外安康新居9栋","address":"内蒙古自治区呼和浩特市回民区","location":{"lat":40.837000341269516,"lng":111.58478190184024},"id":"621ce844f5a1d03f406c6b6a","x":{"class":"2022年03月21日 更新","level":"封控区","parent_polygon_ids":"","source":"区域封闭、足不出户、服务上门","tags":"封控区"},"_distance":14075.1309,"ud_id":"2900265754710493872","polygon":"40.836923,111.584503;40.836796,111.584806;40.837095,111.585019;40.837209,111.584723;40.836923,111.584503","tel":""},{"title":"祥和苑2栋","address":"内蒙古自治区呼和浩特市玉泉区","location":{"lat":40.75384,"lng":111.617459},"id":"621ce84346e74211d47097b8","x":{"class":"2022年03月24日 更新","level":"封控区","parent_polygon_ids":"","source":"区域封闭、足不出户、服务上门","tags":"封控区"},"_distance":14940.9541,"ud_id":"16952324654365642561","polygon":"40.753857,111.616883;40.753647,111.616938;40.753826,111.618037;40.754031,111.617978;40.753857,111.616883","tel":""},{"title":"紫云瑞峰18号楼","address":"内蒙古自治区呼和浩特市回民区","location":{"lat":40.806873,"lng":111.55890900000001},"id":"621ce84471bdf97bbb5679fa","x":{"class":"2022年03月21日 更新","level":"封控区","parent_polygon_ids":"","source":"区域封闭、足不出户、服务上门","tags":"封控区"},"_distance":16696.2676,"ud_id":"2420896910368402084","polygon":"40.807096,111.558974;40.806751,111.55866;40.806649,111.55884;40.807,111.559164;40.807096,111.558974","tel":""},{"title":"花样年华17号楼","address":"内蒙古自治区呼和浩特市土默特左旗","location":{"lat":40.786768,"lng":111.562936},"id":"621ce8452cde8b1f004df30a","x":{"class":"2022年03月21日 更新","level":"封控区","parent_polygon_ids":"","source":"区域封闭、足不出户、服务上门","tags":"封控区"},"_distance":17033.9395,"ud_id":"4290549630653003738","polygon":"40.787209,111.563346;40.786508,111.562324;40.786342,111.562546;40.787016,111.563528;40.787209,111.563346","tel":""},{"title":"友谊馨居4栋","address":"内蒙古自治区呼和浩特市土默特左旗","location":{"lat":40.783439,"lng":111.56236500000001},"id":"621ce84514c15a16ea7155c1","x":{"class":"2022年03月29日 更新","level":"封控区","parent_polygon_ids":"","source":"区域封闭、足不出户、服务上门","tags":"封控区"},"_distance":17214.5645,"ud_id":"17467265631749927304","polygon":"40.783708,111.562525;40.783259,111.562061;40.783176,111.562206;40.783616,111.56267;40.783708,111.562525","tel":""},{"title":"友谊新居底商疫情封控区域","address":"内蒙古自治区呼和浩特市土默特左旗台阁牧镇金山经济技术开发区金川金五道","location":{"lat":40.782818,"lng":111.56159400000001},"id":"621ce845cfb02b66d87df59d","x":{"class":"2022年03月21日 更新","level":"封控区","parent_polygon_ids":"","source":"区域封闭、足不出户、服务上门","tags":"封控区"},"_distance":17300.7227,"ud_id":"2275211886129626216","polygon":"40.783792,111.560913;40.782784,111.561799;40.783542,111.562729;40.783417,111.562917;40.782501,111.561942;40.782422,111.561814;40.78283,111.561441;40.783693,111.560725;40.783792,111.560913","tel":""},{"title":"三铺村三铺路临界街区封控区域","address":"内蒙古自治区呼和浩特市和林格尔县三铺村三铺路临界街区","location":{"lat":40.48085176487633,"lng":111.77656033772656},"id":"621ce84546e74211d47097c1","x":{"class":"2022年03月21日 更新","level":"封控区","parent_polygon_ids":"","source":"区域封闭、足不出户、服务上门","tags":"封控区"},"_distance":40154.7188,"ud_id":"2972891238652645509","polygon":"40.481565,111.779537;40.480508,111.773368;40.479822,111.773577;40.480924,111.779687;40.481565,111.779537","tel":""},{"title":"红羊盘","address":"内蒙古自治区呼和浩特市武川县","location":{"lat":41.275179,"lng":111.416795},"id":"621ce8453bc5604c616cb075","x":{"class":"2022年03月28日 更新","level":"封控区","parent_polygon_ids":"","source":"区域封闭、足不出户、服务上门","tags":"封控区"},"_distance":55815.9531,"ud_id":"9519764274968723487","polygon":"41.276214,111.416103;41.275561,111.414349;41.275238,111.414564;41.27419,111.415889;41.273307,111.419499;41.274948,111.42054;41.275831,111.418796;41.275517,111.417611;41.276444,111.416838;41.276214,111.416103","tel":""},{"title":"范家小泉子","address":"内蒙古自治区呼和浩特市武川县","location":{"lat":41.266982,"lng":111.38893100000001},"id":"621ce8456224b53c2f258ef9","x":{"class":"2022年03月24日 更新","level":"封控区","parent_polygon_ids":"","source":"区域封闭、足不出户、服务上门","tags":"封控区"},"_distance":56260.4102,"ud_id":"8038608145349900633","polygon":"41.266775,111.390048;41.266271,111.390032;41.265852,111.390054;41.265872,111.388176;41.266675,111.388026;41.266759,111.386787;41.267888,111.386819;41.267892,111.389732;41.266844,111.389614;41.266775,111.390048","tel":""},{"title":"下圪奔","address":"内蒙古自治区呼和浩特市武川县","location":{"lat":41.30363,"lng":111.387505},"id":"621ce845cfb02b66d87df5a0","x":{"class":"2022年03月27日 更新","level":"封控区","parent_polygon_ids":"","source":"区域封闭、足不出户、服务上门","tags":"封控区"},"_distance":59784.7539,"ud_id":"8916201002188587011","polygon":"41.305062,111.385118;41.303018,111.385338;41.301693,111.390236;41.302402,111.390874;41.303018,111.389576;41.30455,111.390558;41.305009,111.388578;41.305062,111.385118","tel":""}],"length":46},"内蒙古自治区_通辽市":{"data":[{"title":"乌顺恒日格嘎查","address":"内蒙古自治区通辽市科尔沁左翼后旗","location":{"lat":42.999264,"lng":123.035137},"id":"62343a51f5f097776743842a","x":{"class":"2022年03月25日 更新","level":"中风险场所","parent_polygon_ids":"","source":"","tags":"中风险场所"},"_distance":96766.0234,"ud_id":"859190976886664761","polygon":"42.999437,123.025503;43.000598,123.033872;43.000787,123.039021;42.999845,123.048978;42.999437,123.050179;42.997805,123.052711;42.996958,123.056231;43.002231,123.064127;43.000724,123.066659;42.997899,123.065543;42.995639,123.061767;42.992689,123.059835;42.992406,123.056016;42.995325,123.055544;42.997428,123.041993;42.998315,123.036414;42.998142,123.027574;42.997931,123.026147;42.998292,123.022553;42.9991,123.022574;42.999437,123.025503","tel":""}],"length":1},"北京市":{"data":[{"title":"国瑞城东区3号楼4-9单元","address":"北京市东城区房产小区:房产小区附属","location":{"lat":39.897816,"lng":116.42528600000001},"id":"62393376e4af2a7b956e5bb4","x":{"class":"2022年03月29日 更新","level":"封控区","parent_polygon_ids":"","source":"区域封闭、足不出户、服务上门","tags":"封控区"},"_distance":1724.05603,"ud_id":"1672684681022825883","polygon":"39.898353,116.425449;39.898348,116.425137;39.897502,116.425177;39.897527,116.4262;39.897703,116.426185;39.897689,116.425499;39.898353,116.425449","tel":""},{"title":"国瑞城东区","address":"北京市东城区国瑞东路26号","location":{"lat":39.898249,"lng":116.425836},"id":"623933a1d9df2f443e482857","x":{"class":"2022年03月28日 更新","level":"管控区","parent_polygon_ids":"","source":"人不出区、严禁聚集","tags":"管控区"},"_distance":1745.92566,"ud_id":"11677446371329860913","polygon":"39.899025,116.425021;39.897452,116.425086;39.897516,116.426647;39.899012,116.426547;39.899025,116.425021","tel":""},{"title":"DRC建国门外外交公寓","address":"北京市朝阳区秀水街1号院","location":{"lat":39.910402,"lng":116.437734},"id":"6231249149021c33d1083c6f","x":{"class":"2022年03月28日 更新","level":"管控区","parent_polygon_ids":"","source":"人不出区、严禁聚集","tags":"管控区"},"_distance":2683.22681,"ud_id":"3715525382424126485","polygon":"39.912876,116.436195;39.912884,116.43671;39.911985,116.436684;39.91174,116.436743;39.91175,116.438797;39.908998,116.438792;39.908979,116.436772;39.909646,116.436734;39.909736,116.43674;39.909749,116.436855;39.910452,116.436568;39.91059,116.436445;39.910831,116.436423;39.910841,116.43626;39.911905,116.435949;39.912287,116.435938;39.912287,116.43619;39.912876,116.436195","tel":""},{"title":"光明中街1号楼","address":"北京市东城区","location":{"lat":39.88807,"lng":116.439793},"id":"623931eb19af3f531d67dd2a","x":{"class":"2022年03月28日 更新","level":"封控区","parent_polygon_ids":"","source":"区域封闭、足不出户、服务上门","tags":"封控区"},"_distance":3340.76294,"ud_id":"3805411067591899151","polygon":"39.888129,116.439579;39.888133,116.439959;39.888018,116.439961;39.888014,116.439582;39.888129,116.439579","tel":""},{"title":"富力城D区58号楼","address":"北京市朝阳区","location":{"lat":39.894831,"lng":116.45078},"id":"623c3382caf6a96a8d45d949","x":{"class":"2022年03月24日 更新","level":"管控区","parent_polygon_ids":"3400180175138532463","source":"人不出区、严禁聚集","tags":"管控区"},"_distance":3878.32666,"ud_id":"18051473629826363983","polygon":"39.894745,116.450633;39.89474,116.450922;39.89492,116.450933;39.894922,116.450634;39.894745,116.450633","tel":""},{"title":"富力城D区57号楼","address":"北京市朝阳区","location":{"lat":39.894825,"lng":116.451094},"id":"622dbe17477dfe05b0361429","x":{"class":"2022年03月28日 更新","level":"管控区","parent_polygon_ids":"3400180175138532463","source":"人不出区、严禁聚集","tags":"管控区"},"_distance":3904.21387,"ud_id":"14207457191379707978","polygon":"39.894917,116.450954;39.894736,116.450949;39.894732,116.451234;39.894915,116.45124;39.894917,116.450954","tel":""},{"title":"富力城D区55号楼","address":"北京市朝阳区","location":{"lat":39.894104,"lng":116.450829},"id":"622dbe85ce83617c50a2c0e9","x":{"class":"2022年03月21日 更新","level":"管控区","parent_polygon_ids":"3400180175138532463","source":"人不出区、严禁聚集","tags":"管控区"},"_distance":3905.94824,"ud_id":"5436862180052754636","polygon":"39.894234,116.45066;39.894232,116.451018;39.893936,116.451003;39.893944,116.450807;39.894052,116.450665;39.894234,116.45066","tel":""},{"title":"富力城D区56号楼","address":"北京市朝阳区","location":{"lat":39.894822,"lng":116.451399},"id":"622dbe00477dfe05b03613fa","x":{"class":"2022年03月25日 更新","level":"管控区","parent_polygon_ids":"3400180175138532463","source":"人不出区、严禁聚集","tags":"管控区"},"_distance":3929.28442,"ud_id":"11094736761568337175","polygon":"39.894913,116.451246;39.894733,116.451246;39.894733,116.451551;39.894911,116.451557;39.894913,116.451246","tel":""},{"title":"富力城D区53号楼","address":"北京市朝阳区","location":{"lat":39.894023,"lng":116.451162},"id":"622dbeb3a8223c29c338d069","x":{"class":"2022年03月25日 更新","level":"管控区","parent_polygon_ids":"3400180175138532463","source":"人不出区、严禁聚集","tags":"管控区"},"_distance":3935.75073,"ud_id":"9495934563270033117","polygon":"39.894121,116.451013;39.893934,116.451005;39.893924,116.451313;39.894114,116.45132;39.894121,116.451013","tel":""},{"title":"富力城D区32号楼","address":"北京市朝阳区","location":{"lat":39.895084,"lng":116.45171800000001},"id":"622dbc1d88aa87190521295f","x":{"class":"2022年03月24日 更新","level":"管控区","parent_polygon_ids":"3400180175138532463","source":"人不出区、严禁聚集","tags":"管控区"},"_distance":3947.43408,"ud_id":"3730890462927204506","polygon":"39.894988,116.451562;39.894986,116.451873;39.895182,116.451877;39.895182,116.451563;39.894988,116.451562","tel":""},{"title":"富力城D区52号楼","address":"北京市朝阳区","location":{"lat":39.894025,"lng":116.451452},"id":"622dbecc99f4432cb106c4e3","x":{"class":"2022年03月22日 更新","level":"管控区","parent_polygon_ids":"3400180175138532463","source":"人不出区、严禁聚集","tags":"管控区"},"_distance":3959.28174,"ud_id":"9453642526944750309","polygon":"39.894112,116.451342;39.893941,116.451332;39.893938,116.451564;39.894109,116.451572;39.894112,116.451342","tel":""},{"title":"富力城D区","address":"北京市朝阳区","location":{"lat":39.894634,"lng":116.451856},"id":"623132aa19af3f531d5b5e65","x":{"class":"2022年03月23日 更新","level":"管控区","parent_polygon_ids":"","source":"人不出区、严禁聚集","tags":"管控区"},"_distance":3972.57,"ud_id":"3400180175138532463","polygon":"39.893831,116.451988;39.893856,116.450486;39.895042,116.450508;39.895031,116.451515;39.895206,116.451543;39.895206,116.452396;39.895593,116.452439;39.895577,116.453485;39.895231,116.453474;39.894309,116.452884;39.894312,116.452005;39.893831,116.451988","tel":""},{"title":"富力城D区31号楼","address":"北京市朝阳区","location":{"lat":39.895087,"lng":116.452068},"id":"622dbc4006bcb060e372fd3b","x":{"class":"2022年03月28日 更新","level":"管控区","parent_polygon_ids":"3400180175138532463","source":"人不出区、严禁聚集","tags":"管控区"},"_distance":3976.09033,"ud_id":"6598127549390154206","polygon":"39.895178,116.451916;39.894993,116.451915;39.895001,116.452224;39.895178,116.45222;39.895178,116.451916","tel":""},{"title":"富力城D区51号楼","address":"北京市朝阳区","location":{"lat":39.894019,"lng":116.451738},"id":"622dbee246e74211d4ce6106","x":{"class":"2022年03月21日 更新","level":"管控区","parent_polygon_ids":"3400180175138532463","source":"人不出区、严禁聚集","tags":"管控区"},"_distance":3982.76367,"ud_id":"2853617795461390278","polygon":"39.894111,116.451573;39.893934,116.451568;39.893931,116.451901;39.894103,116.451912;39.894111,116.451573","tel":""},{"title":"富力城D区22号楼","address":"北京市朝阳区","location":{"lat":39.895488,"lng":116.452584},"id":"622dbcab477dfe05b036121a","x":{"class":"2022年03月21日 更新","level":"管控区","parent_polygon_ids":"3400180175138532463","source":"人不出区、严禁聚集","tags":"管控区"},"_distance":4006.87891,"ud_id":"7084021301782968058","polygon":"39.895584,116.452434;39.895392,116.452428;39.895394,116.452734;39.895583,116.45274;39.895584,116.452434","tel":""},{"title":"富力城D区19号楼","address":"北京市朝阳区","location":{"lat":39.894475,"lng":116.452346},"id":"622dbd1c2cde8b1f00abda17","x":{"class":"2022年03月28日 更新","level":"封控区","parent_polygon_ids":"","source":"区域封闭、足不出户、服务上门","tags":"封控区"},"_distance":4017.66455,"ud_id":"15590205684874944297","polygon":"39.894566,116.452169;39.894567,116.452525;39.894386,116.452524;39.894381,116.452169;39.894566,116.452169","tel":""},{"title":"富力城D区21号楼","address":"北京市朝阳区","location":{"lat":39.895464,"lng":116.452878},"id":"622dbcc7486fa8613198e14f","x":{"class":"2022年03月25日 更新","level":"管控区","parent_polygon_ids":"3400180175138532463","source":"人不出区、严禁聚集","tags":"管控区"},"_distance":4031.81445,"ud_id":"17043825832582846328","polygon":"39.895581,116.452746;39.895396,116.452744;39.895396,116.453003;39.895577,116.453004;39.895581,116.452746","tel":""},{"title":"富力城D区18号楼","address":"北京市朝阳区","location":{"lat":39.894572,"lng":116.45270300000001},"id":"622dbd4bffcda503928771f9","x":{"class":"2022年03月27日 更新","level":"管控区","parent_polygon_ids":"3400180175138532463","source":"人不出区、严禁聚集","tags":"管控区"},"_distance":4043.86816,"ud_id":"15380425669217031530","polygon":"39.894656,116.452527;39.89449,116.452527;39.894489,116.452878;39.894656,116.452883;39.894656,116.452527","tel":""},{"title":"富力城D区24号楼","address":"北京市朝阳区","location":{"lat":39.894856,"lng":116.452868},"id":"622dbc5c2e560346c89afd7d","x":{"class":"2022年03月28日 更新","level":"管控区","parent_polygon_ids":"3400180175138532463","source":"人不出区、严禁聚集","tags":"管控区"},"_distance":4048.74146,"ud_id":"1279707235703045347","polygon":"39.894762,116.452609;39.894824,116.452785;39.894769,116.452785;39.894765,116.453138;39.894934,116.453145;39.894938,116.452823;39.894845,116.452562;39.894762,116.452609","tel":""},{"title":"富力城D区20号楼","address":"北京市朝阳区","location":{"lat":39.895464,"lng":116.453194},"id":"622dbce078edf4226376cbcd","x":{"class":"2022年03月21日 更新","level":"管控区","parent_polygon_ids":"3400180175138532463","source":"人不出区、严禁聚集","tags":"管控区"},"_distance":4057.88916,"ud_id":"4243304813152241352","polygon":"39.895575,116.453024;39.895396,116.453021;39.895397,116.453346;39.895573,116.453357;39.895575,116.453024","tel":""},{"title":"建外SOHO东区8号楼","address":"北京市朝阳区建外大街4号建外SOHO8号楼SH-0831号房","location":{"lat":39.905664,"lng":116.45843},"id":"623124da16142171ed222773","x":{"class":"2022年03月29日 更新","level":"管控区","parent_polygon_ids":"","source":"人不出区、严禁聚集","tags":"管控区"},"_distance":4373.74121,"ud_id":"2515903605116682788","polygon":"39.905673,116.458101;39.905788,116.458407;39.905543,116.458554;39.905442,116.45824;39.905673,116.458101","tel":""},{"title":"官书院小区(永康胡同)","address":"北京市东城区永康胡同2号","location":{"lat":39.94655,"lng":116.410726},"id":"6237e39f8a1b7873f842eb29","x":{"class":"2022年03月28日 更新","level":"管控区","parent_polygon_ids":"","source":"人不出区、严禁聚集","tags":"管控区"},"_distance":4664.4917,"ud_id":"1177190559645854436","polygon":"39.946877,116.411605;39.946196,116.411597;39.946198,116.410097;39.946332,116.410103;39.946342,116.409757;39.946854,116.40976;39.946893,116.41116;39.946877,116.411605","tel":""},{"title":"NA Florist","address":"北京市东城区炮局头条23号","location":{"lat":39.946466,"lng":116.42400300000001},"id":"6237eb3d9e7e8934a3845c2b","x":{"class":"2022年03月28日 更新","level":"管控区","parent_polygon_ids":"","source":"人不出区、严禁聚集","tags":"管控区"},"_distance":4861.99707,"ud_id":"17979863407168807853","polygon":"39.946489,116.42405;39.946442,116.424049;39.946442,116.423955;39.94649,116.423958;39.946489,116.42405","tel":""},{"title":"DaliDali达利","address":"北京市东城区安定门西大街15号","location":{"lat":39.94851,"lng":116.404766},"id":"6237d1c53a9e8b60572e9cf0","x":{"class":"2022年03月28日 更新","level":"管控区","parent_polygon_ids":"","source":"人不出区、严禁聚集","tags":"管控区"},"_distance":4876.87598,"ud_id":"203189208819020688","polygon":"39.94856,116.404725;39.948462,116.404726;39.94846,116.404844;39.948558,116.404843;39.94856,116.404725","tel":""},{"title":"安定门西大街16号","address":"北京市东城区","location":{"lat":39.948519,"lng":116.404557},"id":"6237d544414b6e38351335ba","x":{"class":"2022年03月28日 更新","level":"封控区","parent_polygon_ids":"","source":"区域封闭、足不出户、服务上门","tags":"封控区"},"_distance":4878.6582,"ud_id":"9847085127682568313","polygon":"39.948572,116.404494;39.948573,116.404618;39.948467,116.40462;39.948467,116.404496;39.948572,116.404494","tel":""},{"title":"张记焖窑","address":"北京市东城区东直门北小街11号","location":{"lat":39.946396,"lng":116.42532000000001},"id":"6237e627a7f24510b077b9d0","x":{"class":"2022年03月28日 更新","level":"管控区","parent_polygon_ids":"","source":"人不出区、严禁聚集","tags":"管控区"},"_distance":4888.94482,"ud_id":"6120011126267361696","polygon":"39.946454,116.425236;39.94634,116.425235;39.946341,116.425405;39.946452,116.425406;39.946454,116.425236","tel":""},{"title":"东河沿小区","address":"北京市东城区安定门东滨河路","location":{"lat":39.950601,"lng":116.412157},"id":"6231236134a1b048d56e49b5","x":{"class":"2022年03月28日 更新","level":"封控区","parent_polygon_ids":"","source":"区域封闭、足不出户、服务上门","tags":"封控区"},"_distance":5122.75391,"ud_id":"10742716709068313871","polygon":"39.950831,116.411493;39.950815,116.411742;39.950871,116.411755;39.950873,116.41218;39.950869,116.413405;39.950881,116.413535;39.950891,116.414118;39.95095,116.414122;39.951004,116.414215;39.951009,116.414808;39.951108,116.414891;39.951142,116.414929;39.951143,116.414994;39.951141,116.415367;39.951145,116.415728;39.950956,116.415725;39.950956,116.415609;39.950874,116.415619;39.950869,116.415189;39.950845,116.41498;39.9508,116.414835;39.950789,116.414233;39.950679,116.414174;39.950375,116.414259;39.950476,116.416;39.950046,116.41603;39.950048,116.414763;39.950088,116.414224;39.950146,116.413179;39.950242,116.41203;39.950345,116.410218;39.950415,116.408753;39.950646,116.408498;39.950896,116.408506;39.950897,116.408793;39.951326,116.408792;39.951319,116.409343;39.951227,116.409343;39.951219,116.410165;39.951094,116.410162;39.951024,116.410153;39.950962,116.41015;39.950806,116.410149;39.950811,116.411446;39.950831,116.411493","tel":""},{"title":"和平里第四小学东城区师范学校附属小学校区","address":"北京市东城区安定门外东河沿乙7号64263926室","location":{"lat":39.951023,"lng":116.410724},"id":"623123a36538d5532c510b26","x":{"class":"2022年03月29日 更新","level":"封控区","parent_polygon_ids":"","source":"区域封闭、足不出户、服务上门","tags":"封控区"},"_distance":5160.90576,"ud_id":"12464311827675989733","polygon":"39.951182,116.410201;39.950808,116.410201;39.950808,116.410607;39.950841,116.410641;39.950845,116.411275;39.951231,116.411264;39.951182,116.410201","tel":""},{"title":"富顿中心","address":"北京市朝阳区东三环南路58号","location":{"lat":39.88526938383009,"lng":116.462260072412},"id":"6231217b86e30f3a373929f4","x":{"class":"2022年03月29日 更新","level":"管控区","parent_polygon_ids":"","source":"人不出区、严禁聚集","tags":"管控区"},"_distance":5172.17871,"ud_id":"6932184335146610635","polygon":"39.885927,116.461678;39.88467,116.461641;39.884643,116.461733;39.88467,116.463207;39.88539,116.463205;39.885924,116.463173;39.885927,116.461678","tel":""},{"title":"北京市东城区和平里第四小学(和二校区)","address":"北京市东城区民旺南胡同20号","location":{"lat":39.951008,"lng":116.427407},"id":"622f2be6b9b6ba4fee1a6775","x":{"class":"2022年03月29日 更新","level":"封控区","parent_polygon_ids":"","source":"区域封闭、足不出户、服务上门","tags":"封控区"},"_distance":5431.72705,"ud_id":"13262124569794735424","polygon":"39.950748,116.427812;39.950737,116.42702;39.951268,116.427015;39.951282,116.427784;39.950748,116.427812","tel":""},{"title":"和平里东街-和平里西街围合区域","address":"北京市东城区","location":{"lat":39.952187,"lng":116.422129},"id":"6231e58703b34818041bf675","x":{"class":"2022年03月21日 更新","level":"防范区","parent_polygon_ids":"","source":"强化社会面管控，严格限制人员聚集","tags":"防范区"},"_distance":5433.28,"ud_id":"2833021717739014160","polygon":"39.95394,116.419126;39.951982,116.419115;39.951505,116.418858;39.95116,116.417881;39.951069,116.417077;39.950921,116.416733;39.950165,116.416508;39.95037,116.425091;39.954096,116.425037;39.95394,116.419126","tel":""},{"title":"民旺南胡同-滨河路围合区域","address":"北京市东城区","location":{"lat":39.951022540635485,"lng":116.42744706325149},"id":"6231eb7f86e30f3a373f6b66","x":{"class":"2022年03月21日 更新","level":"管控区","parent_polygon_ids":"","source":"人不出区、严禁聚集","tags":"管控区"},"_distance":5434.34619,"ud_id":"2736969598852421623","polygon":"39.95123,116.425547;39.950424,116.425574;39.950469,116.428921;39.951156,116.428873;39.951263,116.428342;39.95123,116.425547","tel":""},{"title":"和平新城","address":"北京市东城区和平里东街11号民旺园内(近","location":{"lat":39.95201,"lng":116.426176},"id":"62311d7b16142171ed221f49","x":{"class":"2022年03月28日 更新","level":"管控区","parent_polygon_ids":"","source":"人不出区、严禁聚集","tags":"管控区"},"_distance":5505.67334,"ud_id":"7588531987842473704","polygon":"39.952683,116.42559;39.95267,116.426805;39.952213,116.426771;39.952093,116.426741;39.951961,116.426741;39.951825,116.4268;39.951347,116.426795;39.951358,116.42555;39.952683,116.42559","tel":""},{"title":"民旺中园小区","address":"北京市东城区和平里东街11号","location":{"lat":39.951846,"lng":116.428003},"id":"6241285a37af4212da305706","x":{"class":"2022年03月29日 更新","level":"管控区","parent_polygon_ids":"","source":"人不出区、严禁聚集","tags":"管控区"},"_distance":5536.25342,"ud_id":"3525677895892491266","polygon":"39.952269,116.426863;39.952272,116.427792;39.952648,116.427792;39.952663,116.429133;39.952447,116.429149;39.952361,116.429088;39.952241,116.429093;39.951343,116.429133;39.951322,116.426867;39.952269,116.426863","tel":""},{"title":"和平新城29号楼","address":"北京市东城区","location":{"lat":39.952329,"lng":116.426583},"id":"6231224fd9df2f443e3b6d7b","x":{"class":"2022年03月28日 更新","level":"封控区","parent_polygon_ids":"2402963267063985418","source":"区域封闭、足不出户、服务上门","tags":"封控区"},"_distance":5549.83398,"ud_id":"4556178620562079448","polygon":"39.952554,116.426434;39.952233,116.426444;39.952235,116.426753;39.952558,116.426738;39.952554,116.426434","tel":""},{"title":"民旺北胡同-民旺南胡同围合区域","address":"北京市东城区","location":{"lat":39.95237,"lng":116.427287},"id":"6231ec7f414b6e38350a206f","x":{"class":"2022年03月22日 更新","level":"封控区","parent_polygon_ids":"","source":"区域封闭、足不出户、服务上门","tags":"封控区"},"_distance":5572.36963,"ud_id":"2402963267063985418","polygon":"39.953389,116.42545;39.951353,116.42552;39.951339,116.42913;39.952001,116.429112;39.952015,116.429222;39.952367,116.429224;39.952359,116.429098;39.952558,116.429173;39.952566,116.429254;39.952803,116.429256;39.952805,116.429482;39.95308,116.429479;39.953276,116.429474;39.95336,116.429447;39.953411,116.429385;39.953393,116.429409;39.953415,116.429383;39.953389,116.42545","tel":""},{"title":"民旺园13号楼","address":"北京市东城区民旺南胡同","location":{"lat":39.952211,"lng":116.427952},"id":"622f2c191de62907344795ac","x":{"class":"2022年03月28日 更新","level":"封控区","parent_polygon_ids":"2402963267063985418","source":"区域封闭、足不出户、服务上门","tags":"封控区"},"_distance":5573.32031,"ud_id":"15275978238248626392","polygon":"39.952307,116.42787;39.952309,116.428016;39.952159,116.428016;39.952142,116.42799;39.952141,116.427872;39.952307,116.42787","tel":""},{"title":"和平里东街9号院","address":"北京市东城区和平里东街11号院","location":{"lat":39.953061,"lng":116.424728},"id":"62311fa69c07b431d4853fde","x":{"class":"2022年03月28日 更新","level":"管控区","parent_polygon_ids":"","source":"人不出区、严禁聚集","tags":"管控区"},"_distance":5583.09375,"ud_id":"8339545317110630708","polygon":"39.95398,116.425066;39.952866,116.425091;39.952348,116.425101;39.95233,116.42456;39.952704,116.424541;39.952614,116.423514;39.952973,116.423479;39.953027,116.424447;39.953531,116.424415;39.953923,116.424402;39.953982,116.424422;39.953999,116.425029;39.95398,116.425066","tel":""},{"title":"民旺社区","address":"北京市东城区","location":{"lat":39.952451,"lng":116.42739700000001},"id":"62312476d35b884d47442f35","x":{"class":"2022年03月29日 更新","level":"防范区","parent_polygon_ids":"","source":"强化社会面管控，严格限制人员聚集","tags":"防范区"},"_distance":5583.83203,"ud_id":"14389652108255899466","polygon":"39.950411,116.42552;39.95424,116.425338;39.954277,116.425611;39.954273,116.429109;39.953446,116.429163;39.953051,116.429195;39.952661,116.429189;39.952505,116.42913;39.952381,116.429082;39.951571,116.429114;39.951316,116.42912;39.951242,116.428953;39.950444,116.42897;39.950411,116.42552","tel":""},{"title":"民旺社区和平里东街9号院4号楼","address":"北京市东城区","location":{"lat":39.953719,"lng":116.424673},"id":"6231216e14140d261c0961da","x":{"class":"2022年03月28日 更新","level":"封控区","parent_polygon_ids":"","source":"区域封闭、足不出户、服务上门","tags":"封控区"},"_distance":5652.375,"ud_id":"1135246493710275702","polygon":"39.953859,116.424526;39.953573,116.42454;39.95358,116.424825;39.953865,116.424804;39.953859,116.424526","tel":""},{"title":"和平里南街-民旺北胡同围合区域","address":"北京市东城区","location":{"lat":39.953824,"lng":116.427413},"id":"6231deaebaa96039ea6d0b79","x":{"class":"2022年03月21日 更新","level":"管控区","parent_polygon_ids":"","source":"人不出区、严禁聚集","tags":"管控区"},"_distance":5729.63672,"ud_id":"1168105552258023003","polygon":"39.954232,116.425386;39.953459,116.42545;39.953471,116.429329;39.954265,116.429356;39.954248,116.427366;39.954248,116.426378;39.954232,116.425386","tel":""},{"title":"和平里5区","address":"北京市东城区和平里南街","location":{"lat":39.955243,"lng":116.421201},"id":"62311ecd5962b6600b194015","x":{"class":"2022年03月29日 更新","level":"管控区","parent_polygon_ids":"","source":"人不出区、严禁聚集","tags":"管控区"},"_distance":5747.14941,"ud_id":"11795405088235820915","polygon":"39.954154,116.419046;39.955099,116.419;39.955111,116.421033;39.956511,116.420993;39.956527,116.42249;39.956578,116.422728;39.956586,116.422929;39.956454,116.422916;39.956304,116.422921;39.95601,116.422932;39.95579,116.422774;39.955644,116.422784;39.955231,116.422819;39.954855,116.422857;39.954814,116.422956;39.954825,116.423281;39.954499,116.423285;39.954169,116.42325;39.954108,116.420854;39.954404,116.42085;39.954538,116.420715;39.954541,116.420384;39.954103,116.420398;39.954093,116.419076;39.954154,116.419046","tel":""},{"title":"SOHO现代城D座","address":"北京市朝阳区建国路88号院10","location":{"lat":39.907266158,"lng":116.474792473},"id":"623124167fd2a036e639840b","x":{"class":"2022年03月29日 更新","level":"管控区","parent_polygon_ids":"","source":"人不出区、严禁聚集","tags":"管控区"},"_distance":5775.13721,"ud_id":"8388005474837575047","polygon":"39.907214,116.474472;39.90722,116.475232;39.907667,116.47523;39.907669,116.474476;39.907214,116.474472","tel":""},{"title":"和平里社区","address":"北京市东城区和平里南街与和平里西街交叉口北150米","location":{"lat":39.955708,"lng":116.421979},"id":"62313a2a4bf7b7430b424c67","x":{"class":"2022年03月29日 更新","level":"防范区","parent_polygon_ids":"","source":"强化社会面管控，严格限制人员聚集","tags":"防范区"},"_distance":5811.78174,"ud_id":"4368528170541089876","polygon":"39.957328,116.425048;39.954178,116.425123;39.954047,116.418976;39.957279,116.418772;39.957328,116.425048","tel":""},{"title":"和平里5区甲5号楼","address":"北京市东城区","location":{"lat":39.955917,"lng":116.422477},"id":"623121121701373c49576da1","x":{"class":"2022年03月29日 更新","level":"封控区","parent_polygon_ids":"","source":"区域封闭、足不出户、服务上门","tags":"封控区"},"_distance":5843.80518,"ud_id":"12179869334973464569","polygon":"39.955903,116.422044;39.955669,116.422048;39.955672,116.422205;39.95582,116.422203;39.95582,116.422756;39.955918,116.422758;39.95592,116.422852;39.956124,116.422852;39.956122,116.422657;39.956017,116.422656;39.956017,116.4227;39.955976,116.4227;39.955974,116.422133;39.955908,116.422133;39.955903,116.422044","tel":""},{"title":"月坛北街25号院-47-48门","address":"北京市西城区三里河北街","location":{"lat":39.918861,"lng":116.338041},"id":"62311c2314140d261c095c13","x":{"class":"2022年03月23日 更新","level":"封控区","parent_polygon_ids":"","source":"区域封闭、足不出户、服务上门","tags":"封控区"},"_distance":6102.9707,"ud_id":"2820389343617146089","polygon":"39.918879,116.337847;39.918793,116.33785;39.918795,116.338199;39.918879,116.338199;39.918879,116.337847","tel":""},{"title":"松榆西里社区75号楼","address":"北京市朝阳区","location":{"lat":39.872021,"lng":116.464661},"id":"622964ccad2967482b81b2a6","x":{"class":"2022年03月27日 更新","level":"管控区","parent_polygon_ids":"","source":"人不出区、严禁聚集","tags":"管控区"},"_distance":6103.77197,"ud_id":"1944637506088748787","polygon":"39.872088,116.464342;39.871929,116.464348;39.871933,116.464705;39.871942,116.465241;39.872067,116.46523;39.872086,116.46478;39.872088,116.464342","tel":""},{"title":"月坛北街25号院-50-52门","address":"北京市西城区三里河北街与月坛北街交叉口西北方向120米","location":{"lat":39.918553,"lng":116.337856},"id":"6231fc8a8a1b7873f83a0026","x":{"class":"2022年03月24日 更新","level":"管控区","parent_polygon_ids":"","source":"人不出区、严禁聚集","tags":"管控区"},"_distance":6109.49658,"ud_id":"12907407418335935479","polygon":"39.918626,116.337569;39.918636,116.338143;39.918474,116.338142;39.918477,116.337572;39.918626,116.337569","tel":""},{"title":"月坛北街25号院-45-46门","address":"北京市西城区三里河北街","location":{"lat":39.919181,"lng":116.338019},"id":"623148a334a1b048d56e82d8","x":{"class":"2022年03月29日 更新","level":"管控区","parent_polygon_ids":"","source":"人不出区、严禁聚集","tags":"管控区"},"_distance":6114.04834,"ud_id":"13357007893145786610","polygon":"39.919223,116.337809;39.919223,116.338228;39.919089,116.338228;39.919087,116.337804;39.919223,116.337809","tel":""},{"title":"交林夹道1号楼","address":"北京市东城区","location":{"lat":39.957381,"lng":116.42847200000001},"id":"6231bddb8a1b7873f8392880","x":{"class":"2022年03月28日 更新","level":"封控区","parent_polygon_ids":"","source":"区域封闭、足不出户、服务上门","tags":"封控区"},"_distance":6134.05908,"ud_id":"14917889487142755334","polygon":"39.957422,116.428134;39.957332,116.428135;39.957343,116.428811;39.95743,116.42881;39.957422,116.428134","tel":""},{"title":"甜水西园8号楼","address":"北京市朝阳区","location":{"lat":39.925089,"lng":116.474216},"id":"623af88acaf6a96a8d43e287","x":{"class":"2022年03月27日 更新","level":"防范区","parent_polygon_ids":"","source":"强化社会面管控，严格限制人员聚集","tags":"防范区"},"_distance":6151.56934,"ud_id":"8253274308724086309","polygon":"39.925178,116.474017;39.925181,116.474177;39.925147,116.474181;39.92515,116.474267;39.925187,116.474265;39.925186,116.474416;39.925092,116.474417;39.925091,116.474336;39.924859,116.474342;39.924849,116.474084;39.925079,116.474075;39.925081,116.474019;39.925178,116.474017","tel":""},{"title":"甜水西园1号楼","address":"北京市朝阳区","location":{"lat":39.925928,"lng":116.474231},"id":"623af936d35b884d4778e3a0","x":{"class":"2022年03月27日 更新","level":"管控区","parent_polygon_ids":"","source":"人不出区、严禁聚集","tags":"管控区"},"_distance":6187.72852,"ud_id":"16193416587883822237","polygon":"39.926021,116.47387;39.926019,116.474589;39.925846,116.474589;39.925848,116.473872;39.926021,116.47387","tel":""},{"title":"交林夹道小区","address":"北京市东城区和平里东街12号","location":{"lat":39.958076,"lng":116.428043},"id":"6231dd15e4af2a7b95630b4e","x":{"class":"2022年03月29日 更新","level":"管控区","parent_polygon_ids":"","source":"人不出区、严禁聚集","tags":"管控区"},"_distance":6197.31348,"ud_id":"5413913419460918093","polygon":"39.9584,116.427787;39.958397,116.428183;39.958125,116.428193;39.957487,116.428194;39.95749,116.428851;39.95732,116.428846;39.957314,116.427947;39.957915,116.427905;39.95794,116.427421;39.959223,116.427408;39.959234,116.427743;39.9584,116.427787","tel":""},{"title":"甜水西园6号楼","address":"北京市朝阳区","location":{"lat":39.926269,"lng":116.474213},"id":"623af869391de17bdd5ac5c9","x":{"class":"2022年03月28日 更新","level":"管控区","parent_polygon_ids":"","source":"人不出区、严禁聚集","tags":"管控区"},"_distance":6200.86719,"ud_id":"2190786622255673039","polygon":"39.92635,116.47387;39.926352,116.474551;39.926193,116.474554;39.926187,116.473872;39.92635,116.47387","tel":""},{"title":"公园五号9号楼","address":"北京市朝阳区","location":{"lat":39.925384,"lng":116.474792},"id":"623af850dc30c11543826033","x":{"class":"2022年03月28日 更新","level":"防范区","parent_polygon_ids":"","source":"强化社会面管控，严格限制人员聚集","tags":"防范区"},"_distance":6209.3291,"ud_id":"17575928114284027370","polygon":"39.925477,116.474586;39.925478,116.474747;39.925439,116.474745;39.925441,116.474854;39.925476,116.474853;39.925478,116.474984;39.925381,116.474991;39.925381,116.474924;39.925153,116.474935;39.925149,116.474656;39.925383,116.474648;39.925382,116.474589;39.925477,116.474586","tel":""},{"title":"甜水西园7号楼","address":"北京市朝阳区","location":{"lat":39.92662,"lng":116.474207},"id":"623af86f86e30f3a376db074","x":{"class":"2022年03月28日 更新","level":"管控区","parent_polygon_ids":"","source":"人不出区、严禁聚集","tags":"管控区"},"_distance":6215.59375,"ud_id":"17306810382282547723","polygon":"39.926699,116.473848;39.926702,116.474564;39.926539,116.47457;39.926543,116.473848;39.926699,116.473848","tel":""},{"title":"甜水西园10号楼","address":"北京市朝阳区","location":{"lat":39.924941,"lng":116.47531300000001},"id":"623afd3d1701373c49678438","x":{"class":"2022年03月27日 更新","level":"防范区","parent_polygon_ids":"","source":"强化社会面管控，严格限制人员聚集","tags":"防范区"},"_distance":6232.67529,"ud_id":"9232876816832636556","polygon":"39.925035,116.47512;39.925036,116.475263;39.925009,116.475264;39.925009,116.475364;39.925038,116.475361;39.92504,116.475502;39.924939,116.475507;39.924938,116.475433;39.924693,116.47544;39.92469,116.475197;39.924937,116.475189;39.924937,116.47512;39.925035,116.47512","tel":""},{"title":"农光南路小区东区20号楼","address":"北京市朝阳区","location":{"lat":39.879723,"lng":116.472659},"id":"621c927162dec4635d75024e","x":{"class":"2022年03月28日 更新","level":"封控区","parent_polygon_ids":"","source":"区域封闭、足不出户、服务上门","tags":"封控区"},"_distance":6238.89893,"ud_id":"5871646233077437317","polygon":"39.879807,116.472032;39.879918,116.473231;39.879634,116.473285;39.879533,116.472089;39.879807,116.472032","tel":""},{"title":"公园五号11号楼","address":"北京市朝阳区","location":{"lat":39.924393,"lng":116.475922},"id":"623af802ab51a653f9667c23","x":{"class":"2022年03月28日 更新","level":"防范区","parent_polygon_ids":"","source":"强化社会面管控，严格限制人员聚集","tags":"防范区"},"_distance":6259.57178,"ud_id":"11996515558878633684","polygon":"39.924525,116.475726;39.924517,116.476136;39.924427,116.476136;39.924431,116.47605;39.924188,116.47605;39.924194,116.475779;39.924435,116.475779;39.924433,116.475723;39.924525,116.475726","tel":""},{"title":"甜水西园5号楼","address":"北京市朝阳区甜水园街","location":{"lat":39.926265,"lng":116.47509},"id":"623af7b916bf6d5b4f900c03","x":{"class":"2022年03月27日 更新","level":"管控区","parent_polygon_ids":"","source":"人不出区、严禁聚集","tags":"管控区"},"_distance":6269.7334,"ud_id":"7259529144448631436","polygon":"39.926329,116.474741;39.926335,116.47545;39.926175,116.47545;39.926171,116.474744;39.926329,116.474741","tel":""},{"title":"甜水西园2号楼","address":"北京市朝阳区","location":{"lat":39.926607,"lng":116.475073},"id":"623af608efb4693878636f7b","x":{"class":"2022年03月27日 更新","level":"封控区","parent_polygon_ids":"","source":"区域封闭、足不出户、服务上门","tags":"封控区"},"_distance":6283.03809,"ud_id":"3740181584241644134","polygon":"39.926689,116.47474;39.926521,116.47474;39.926526,116.475407;39.926695,116.475407;39.926689,116.47474","tel":""},{"title":"甜水西园12号楼","address":"北京市朝阳区","location":{"lat":39.924394,"lng":116.47672},"id":"623af7ef19af3f531d6b2697","x":{"class":"2022年03月27日 更新","level":"防范区","parent_polygon_ids":"","source":"强化社会面管控，严格限制人员聚集","tags":"防范区"},"_distance":6323.40576,"ud_id":"4402643827604561222","polygon":"39.924515,116.476512;39.924519,116.476922;39.924435,116.476925;39.924433,116.476855;39.924196,116.476863;39.924192,116.476587;39.924429,116.476579;39.924433,116.47652;39.924515,116.476512","tel":""},{"title":"甜水西园4号楼","address":"北京市朝阳区","location":{"lat":39.926253,"lng":116.475881},"id":"623af89d9e7e8934a39a771a","x":{"class":"2022年03月28日 更新","level":"管控区","parent_polygon_ids":"","source":"人不出区、严禁聚集","tags":"管控区"},"_distance":6331.60742,"ud_id":"13994519495064576819","polygon":"39.926333,116.475562;39.926337,116.476198;39.926173,116.476203;39.926171,116.475562;39.926333,116.475562","tel":""},{"title":"甜水西园3号楼","address":"北京市朝阳区甜水园街","location":{"lat":39.92661,"lng":116.47587},"id":"623af8be49021c33d13c5ea1","x":{"class":"2022年03月28日 更新","level":"管控区","parent_polygon_ids":"","source":"人不出区、严禁聚集","tags":"管控区"},"_distance":6345.86865,"ud_id":"11212631168967287470","polygon":"39.926714,116.475554;39.926718,116.476176;39.926531,116.476179;39.926531,116.475562;39.926714,116.475554","tel":""},{"title":"志强北园C区14号楼","address":"北京市海淀区","location":{"lat":39.95269,"lng":116.36512},"id":"622abe0ead23d9224d161410","x":{"class":"2022年03月28日 更新","level":"封控区","parent_polygon_ids":"","source":"区域封闭、足不出户、服务上门","tags":"封控区"},"_distance":6429.91455,"ud_id":"756012930531209403","polygon":"39.952759,116.364752;39.952603,116.364748;39.95262,116.365489;39.952779,116.365492;39.952759,116.364752","tel":""},{"title":"水碓北里28号楼","address":"北京市朝阳区","location":{"lat":39.927736,"lng":116.476683},"id":"6237e58916bf6d5b4f79aee2","x":{"class":"2022年03月23日 更新","level":"管控区","parent_polygon_ids":"","source":"人不出区、严禁聚集","tags":"管控区"},"_distance":6458.54834,"ud_id":"7178871145397014535","polygon":"39.927771,116.477043;39.927772,116.47628;39.927669,116.47628;39.92767,116.477044;39.927771,116.477043","tel":""},{"title":"水碓子北里16号楼","address":"北京市朝阳区","location":{"lat":39.928898,"lng":116.47619},"id":"6237e5679c07b431d4a368d8","x":{"class":"2022年03月24日 更新","level":"管控区","parent_polygon_ids":"","source":"人不出区、严禁聚集","tags":"管控区"},"_distance":6472.58936,"ud_id":"17741017114588408575","polygon":"39.928997,116.476029;39.928997,116.476372;39.928911,116.476372;39.928911,116.476319;39.928763,116.476329;39.928767,116.476045;39.928921,116.476042;39.928921,116.476018;39.928997,116.476029","tel":""},{"title":"水碓子北里25号楼","address":"北京市朝阳区","location":{"lat":39.928081,"lng":116.476702},"id":"6237e5a1414b6e38351357e4","x":{"class":"2022年03月26日 更新","level":"管控区","parent_polygon_ids":"","source":"人不出区、严禁聚集","tags":"管控区"},"_distance":6475.33105,"ud_id":"5124170134148819584","polygon":"39.928119,116.476316;39.928121,116.477067;39.92802,116.477067;39.928014,116.476316;39.928119,116.476316","tel":""},{"title":"秀水园小区22号楼","address":"北京市朝阳区","location":{"lat":39.928507,"lng":116.476718},"id":"6237e5c2d35b884d47627440","x":{"class":"2022年03月27日 更新","level":"管控区","parent_polygon_ids":"","source":"人不出区、严禁聚集","tags":"管控区"},"_distance":6495.7334,"ud_id":"15368250241472698266","polygon":"39.928528,116.477029;39.928526,116.476292;39.928376,116.476294;39.928382,116.477027;39.928528,116.477029","tel":""},{"title":"水碓子北里17号楼","address":"北京市朝阳区","location":{"lat":39.928898,"lng":116.476838},"id":"62345eb686e30f3a374fb4b4","x":{"class":"2022年03月28日 更新","level":"封控区","parent_polygon_ids":"","source":"区域封闭、足不出户、服务上门","tags":"封控区"},"_distance":6522.88818,"ud_id":"8569894539272555366","polygon":"39.929044,116.476627;39.929053,116.477075;39.928773,116.477064;39.928767,116.476627;39.929044,116.476627","tel":""},{"title":"水碓子北里21号楼","address":"北京市朝阳区","location":{"lat":39.928096,"lng":116.477512},"id":"6237e60549021c33d12607de","x":{"class":"2022年03月26日 更新","level":"管控区","parent_polygon_ids":"","source":"人不出区、严禁聚集","tags":"管控区"},"_distance":6539.31836,"ud_id":"9254056378692707989","polygon":"39.928118,116.477202;39.928119,116.477324;39.928078,116.477324;39.928079,116.477453;39.928126,116.477452;39.928126,116.477575;39.927973,116.477581;39.927971,116.477204;39.928118,116.477202","tel":""},{"title":"北京教育学院","address":"北京市西城区什坊街2号","location":{"lat":39.961197,"lng":116.38475},"id":"62345b3dd35b884d475abcc9","x":{"class":"2022年03月28日 更新","level":"封控区","parent_polygon_ids":"","source":"区域封闭、足不出户、服务上门","tags":"封控区"},"_distance":6567.65967,"ud_id":"14652381413801756475","polygon":"39.960722,116.384851;39.960717,116.384437;39.960707,116.384032;39.961745,116.384014;39.961779,116.385453;39.960821,116.385515;39.960804,116.384953;39.960776,116.384894;39.960722,116.384851","tel":""},{"title":"水碓北里18号楼","address":"北京市朝阳区","location":{"lat":39.928683,"lng":116.477662},"id":"6237e5e15962b6600b23ed82","x":{"class":"2022年03月24日 更新","level":"管控区","parent_polygon_ids":"","source":"人不出区、严禁聚集","tags":"管控区"},"_distance":6577.23877,"ud_id":"2440836601863346041","polygon":"39.928965,116.47779;39.928826,116.477783;39.928554,116.477405;39.928416,116.477401;39.92842,116.477538;39.92851,116.47754;39.928792,116.477929;39.928965,116.477933;39.928965,116.47779","tel":""},{"title":"百万庄北里西巷3号院5号楼","address":"北京市西城区三里河路","location":{"lat":39.929505,"lng":116.334468},"id":"621c9271651cba25e8754ff9","x":{"class":"2022年03月25日 更新","level":"封控区","parent_polygon_ids":"","source":"区域封闭、足不出户、服务上门","tags":"封控区"},"_distance":6786.5625,"ud_id":"2493251506228472304","polygon":"39.929758,116.334349;39.929769,116.334526;39.92924,116.334574;39.929231,116.334394;39.929758,116.334349","tel":""},{"title":"百万庄北里西巷3号院","address":"北京市西城区三里河路9正东方向60米","location":{"lat":39.93005373100286,"lng":116.33437579028595},"id":"621c9271cfb02b66d87a8e22","x":{"class":"2022年03月27日 更新","level":"管控区","parent_polygon_ids":"","source":"人不出区、严禁聚集","tags":"管控区"},"_distance":6818.73389,"ud_id":"6065214412451608666","polygon":"39.930206,116.334196;39.929217,116.334306;39.929256,116.335291;39.930124,116.335253;39.93012,116.334451;39.930202,116.334338;39.930206,116.334196","tel":""},{"title":"西坝河中里29号楼","address":"北京市朝阳区西坝河南路","location":{"lat":39.963413,"lng":116.43847},"id":"6237e34a86e30f3a375715c8","x":{"class":"2022年03月28日 更新","level":"封控区","parent_polygon_ids":"","source":"区域封闭、足不出户、服务上门","tags":"封控区"},"_distance":7054.01562,"ud_id":"3767487331961117709","polygon":"39.963716,116.438712;39.963179,116.438121;39.963109,116.43823;39.963649,116.438818;39.963716,116.438712","tel":""},{"title":"西坝河中里社区","address":"北京市朝阳区香河园","location":{"lat":39.963844,"lng":116.440336},"id":"623125a486f8ba16b3638e53","x":{"class":"2022年03月29日 更新","level":"管控区","parent_polygon_ids":"","source":"人不出区、严禁聚集","tags":"管控区"},"_distance":7159.73047,"ud_id":"3697456649856673780","polygon":"39.961513,116.439504;39.961441,116.439619;39.96162,116.439805;39.964769,116.443328;39.966153,116.441253;39.963397,116.438193;39.963355,116.43812;39.963325,116.438043;39.963304,116.437946;39.963261,116.437734;39.963232,116.437571;39.963204,116.437475;39.96315,116.437381;39.963012,116.437234;39.961513,116.439504","tel":""},{"title":"远洋新干线A座","address":"北京市朝阳区霄云路附近","location":{"lat":39.957194,"lng":116.459817},"id":"62313bc037af4212da16fbf7","x":{"class":"2022年03月28日 更新","level":"防范区","parent_polygon_ids":"","source":"强化社会面管控，严格限制人员聚集","tags":"防范区"},"_distance":7364.48438,"ud_id":"11286770382623241134","polygon":"39.957363,116.459531;39.957356,116.460219;39.957151,116.460059;39.957153,116.459952;39.957027,116.459948;39.957038,116.459525;39.957363,116.459531","tel":""},{"title":"远洋新干线D座","address":"北京市朝阳区东三环三元桥霞光里66号","location":{"lat":39.957876,"lng":116.459243},"id":"62313cf9efb4693878539da8","x":{"class":"2022年03月27日 更新","level":"防范区","parent_polygon_ids":"","source":"强化社会面管控，严格限制人员聚集","tags":"防范区"},"_distance":7395.24854,"ud_id":"4602836792052964848","polygon":"39.958181,116.459409;39.957586,116.459445;39.957587,116.459064;39.957791,116.459052;39.958003,116.459028;39.9581,116.459029;39.958123,116.459064;39.958184,116.459199;39.958181,116.459409","tel":""},{"title":"远洋新干线B座","address":"北京市朝阳区东方东路附近","location":{"lat":39.957661,"lng":116.46041},"id":"62296791afbd3c122b704b1f","x":{"class":"2022年03月28日 更新","level":"封控区","parent_polygon_ids":"","source":"区域封闭、足不出户、服务上门","tags":"封控区"},"_distance":7436.46729,"ud_id":"15142291154375877061","polygon":"39.957937,116.460166;39.957431,116.46018;39.957435,116.460424;39.957614,116.460424;39.95762,116.460641;39.957932,116.46063;39.957937,116.460166","tel":""},{"title":"远洋新干线E座","address":"北京市朝阳区霄云路辅路","location":{"lat":39.958359,"lng":116.45969},"id":"623122a3d9df2f443e3b6dfb","x":{"class":"2022年03月24日 更新","level":"管控区","parent_polygon_ids":"","source":"人不出区、严禁聚集","tags":"管控区"},"_distance":7461.07,"ud_id":"5409057507705977705","polygon":"39.95853,116.459661;39.958531,116.460009;39.95824,116.460011;39.958237,116.459365;39.958282,116.459364;39.958404,116.459498;39.958406,116.45966;39.95853,116.459661","tel":""},{"title":"远洋新干线C座","address":"北京市朝阳区霄云路辅路","location":{"lat":39.958162,"lng":116.460954},"id":"6231226b99532971733e2ca1","x":{"class":"2022年03月28日 更新","level":"管控区","parent_polygon_ids":"","source":"人不出区、严禁聚集","tags":"管控区"},"_distance":7508.89893,"ud_id":"7770695216210679408","polygon":"39.958425,116.461154;39.958129,116.461154;39.958124,116.460937;39.957941,116.460937;39.95794,116.460771;39.958417,116.460771;39.958425,116.461154","tel":""},{"title":"远洋新干线F座","address":"北京市朝阳区三环路","location":{"lat":39.958759,"lng":116.460305},"id":"6231221d6538d5532c5107f1","x":{"class":"2022年03月28日 更新","level":"管控区","parent_polygon_ids":"","source":"人不出区、严禁聚集","tags":"管控区"},"_distance":7528.13232,"ud_id":"1285107588415550718","polygon":"39.958956,116.460605;39.958659,116.46059;39.95866,116.460238;39.958634,116.460236;39.958641,116.4599;39.958667,116.459903;39.958779,116.460052;39.958779,116.460241;39.958961,116.460252;39.958956,116.460605","tel":""},{"title":"石门新居4号楼","address":"北京市朝阳区","location":{"lat":39.896511,"lng":116.497261},"id":"6237e3e5ae71b1655e87175a","x":{"class":"2022年03月28日 更新","level":"封控区","parent_polygon_ids":"","source":"区域封闭、足不出户、服务上门","tags":"封控区"},"_distance":7738.76855,"ud_id":"1100325851539923611","polygon":"39.89659,116.497693;39.896586,116.496827;39.896434,116.496832;39.896435,116.497694;39.89659,116.497693","tel":""},{"title":"石门新居35号院10号楼1单元","address":"北京市朝阳区","location":{"lat":39.895456,"lng":116.497177},"id":"6237e526b200496ef21fd938","x":{"class":"2022年03月29日 更新","level":"封控区","parent_polygon_ids":"","source":"区域封闭、足不出户、服务上门","tags":"封控区"},"_distance":7746.3877,"ud_id":"2743811508778314280","polygon":"39.895534,116.497137;39.895534,116.497218;39.895378,116.497218;39.895379,116.497135;39.895534,116.497137","tel":""},{"title":"首体南路12号科技楼","address":"北京市海淀区首体南路2机械科学研究院","location":{"lat":39.937649,"lng":116.32667},"id":"62311fed99532971733e2a24","x":{"class":"2022年03月28日 更新","level":"封控区","parent_polygon_ids":"","source":"区域封闭、足不出户、服务上门","tags":"封控区"},"_distance":7781.94238,"ud_id":"14130974692139821852","polygon":"39.937745,116.326258;39.937554,116.326268;39.93755,116.327086;39.937749,116.327069;39.937745,116.326258","tel":""},{"title":"石佛营路-石佛营西路围合区域","address":"北京市朝阳区","location":{"lat":39.92559,"lng":116.499707},"id":"623935db37af4212da2386fa","x":{"class":"2022年03月29日 更新","level":"防范区","parent_polygon_ids":"","source":"强化社会面管控，严格限制人员聚集","tags":"防范区"},"_distance":8227.17773,"ud_id":"3283603016697006662","polygon":"39.927041,116.496122;39.925156,116.496153;39.923302,116.496091;39.923234,116.496122;39.923242,116.49969;39.92327,116.5017;39.923305,116.501773;39.925508,116.501798;39.926852,116.501823;39.928167,116.50183;39.928193,116.499714;39.926962,116.499696;39.926969,116.497894;39.927041,116.496122","tel":""},{"title":"八里庄北里小区南区309号楼","address":"北京市朝阳区","location":{"lat":39.924401,"lng":116.500426},"id":"6239416c14140d261c30dafd","x":{"class":"2022年03月28日 更新","level":"封控区","parent_polygon_ids":"","source":"区域封闭、足不出户、服务上门","tags":"封控区"},"_distance":8249.98,"ud_id":"13978359299040098287","polygon":"39.924465,116.499711;39.924466,116.500377;39.924489,116.500377;39.924478,116.501185;39.924379,116.501183;39.92437,116.500448;39.924375,116.499709;39.924465,116.499711","tel":""},{"title":"八里庄北里310号楼","address":"北京市朝阳区","location":{"lat":39.924767,"lng":116.500431},"id":"623941b686f8ba16b38af53c","x":{"class":"2022年03月28日 更新","level":"封控区","parent_polygon_ids":"","source":"区域封闭、足不出户、服务上门","tags":"封控区"},"_distance":8261.27051,"ud_id":"10224887896227722156","polygon":"39.924814,116.499785;39.924807,116.500371;39.924827,116.500374;39.924823,116.501187;39.924724,116.501189;39.924725,116.500382;39.924705,116.500381;39.924715,116.499785;39.924814,116.499785","tel":""},{"title":"八里庄北里311号楼","address":"北京市朝阳区","location":{"lat":39.925121,"lng":116.500508},"id":"6239338603b3481804271f39","x":{"class":"2022年03月27日 更新","level":"管控区","parent_polygon_ids":"","source":"人不出区、严禁聚集","tags":"管控区"},"_distance":8278.29199,"ud_id":"7886873814844949350","polygon":"39.925145,116.499783;39.925139,116.500424;39.925166,116.500425;39.925159,116.501192;39.925059,116.501191;39.925068,116.50044;39.925048,116.500437;39.925049,116.49978;39.925145,116.499783","tel":""},{"title":"八里庄北里小区南区312号楼","address":"北京市朝阳区","location":{"lat":39.925366,"lng":116.500471},"id":"6239336ebaa96039ea8d81c5","x":{"class":"2022年03月24日 更新","level":"管控区","parent_polygon_ids":"","source":"人不出区、严禁聚集","tags":"管控区"},"_distance":8282.76758,"ud_id":"9886990211459278652","polygon":"39.925325,116.501188;39.925323,116.500441;39.925307,116.50044;39.925309,116.499836;39.925406,116.499835;39.925403,116.500422;39.92543,116.500424;39.925428,116.501188;39.925325,116.501188","tel":""},{"title":"石门东路-广渠快速路辅路合围区域","address":"北京市朝阳区","location":{"lat":39.894276,"lng":116.503751},"id":"621cec2f6224b53c2f259510","x":{"class":"2022年03月24日 更新","level":"防范区","parent_polygon_ids":"","source":"强化社会面管控，严格限制人员聚集","tags":"防范区"},"_distance":8319.88379,"ud_id":"7243266442315721777","polygon":"39.893334,116.50264;39.895226,116.502673;39.895224,116.504857;39.89332,116.504837;39.893334,116.50264","tel":""},{"title":"吕营西环路-吕家营中心街围合区域","address":"北京市朝阳区","location":{"lat":39.844106,"lng":116.464762},"id":"623124c31701373c49577240","x":{"class":"2022年03月21日 更新","level":"防范区","parent_polygon_ids":"","source":"强化社会面管控，严格限制人员聚集","tags":"防范区"},"_distance":8338.87402,"ud_id":"1658509068671393140","polygon":"39.843334,116.465599;39.843565,116.465548;39.843971,116.46553;39.844121,116.465519;39.84472,116.465512;39.844747,116.46394;39.843162,116.463849;39.843334,116.465599","tel":""},{"title":"八里庄北里307号楼","address":"北京市朝阳区","location":{"lat":39.924574,"lng":116.5015},"id":"623933ea1701373c49640f60","x":{"class":"2022年03月28日 更新","level":"管控区","parent_polygon_ids":"","source":"人不出区、严禁聚集","tags":"管控区"},"_distance":8343.38672,"ud_id":"11469409679124552128","polygon":"39.924658,116.501401;39.924659,116.501586;39.924619,116.501586;39.924621,116.501645;39.924527,116.501649;39.924527,116.501605;39.924488,116.501608;39.924486,116.501411;39.924527,116.501408;39.924526,116.50135;39.924628,116.501349;39.924628,116.501404;39.924658,116.501401","tel":""},{"title":"肖村","address":"北京市朝阳区小红门地区","location":{"lat":39.834542,"lng":116.442285},"id":"62314c3416142171ed2261c6","x":{"class":"2022年03月28日 更新","level":"管控区","parent_polygon_ids":"","source":"人不出区、严禁聚集","tags":"管控区"},"_distance":8355.99512,"ud_id":"12923425606708755235","polygon":"39.835936,116.439199;39.832981,116.439779;39.8328,116.440283;39.832561,116.44063;39.832568,116.4435;39.8326,116.446989;39.832831,116.447031;39.834399,116.446813;39.835347,116.443723;39.835671,116.442654;39.835803,116.442638;39.835943,116.4426;39.835936,116.439199","tel":""},{"title":"八里庄北里306号楼","address":"北京市朝阳区","location":{"lat":39.925288,"lng":116.501527},"id":"623933c29e7e8934a38c96e3","x":{"class":"2022年03月24日 更新","level":"管控区","parent_polygon_ids":"","source":"人不出区、严禁聚集","tags":"管控区"},"_distance":8366.95,"ud_id":"6320055727783365699","polygon":"39.925402,116.501443;39.925403,116.501629;39.925354,116.501629;39.925354,116.501684;39.92521,116.501683;39.92521,116.501636;39.925164,116.501635;39.925161,116.501439;39.925214,116.501436;39.925213,116.50138;39.925364,116.501381;39.925365,116.501443;39.925402,116.501443","tel":""},{"title":"鑫宝公寓","address":"北京市朝阳区吕营大街210号附近西北方向130米","location":{"lat":39.843437,"lng":116.46449500000001},"id":"622965f4bbf61f1d616833cf","x":{"class":"2022年03月29日 更新","level":"封控区","parent_polygon_ids":"","source":"区域封闭、足不出户、服务上门","tags":"封控区"},"_distance":8385.78418,"ud_id":"2203967056833500239","polygon":"39.843505,116.464145;39.843348,116.464152;39.843366,116.464844;39.843532,116.464839;39.843505,116.464145","tel":""},{"title":"城环城国际汽配城","address":"北京市朝阳区小红门南四环东路69号","location":{"lat":39.835799809,"lng":116.455386405},"id":"622966f66a0d063d6f14a0a7","x":{"class":"2022年03月29日 更新","level":"管控区","parent_polygon_ids":"","source":"人不出区、严禁聚集","tags":"管控区"},"_distance":8695.49902,"ud_id":"9446907208162264905","polygon":"39.833034,116.453383;39.834369,116.45334;39.836075,116.45348;39.837895,116.45348;39.837903,116.45775;39.836655,116.458283;39.835922,116.45856;39.835827,116.45801;39.835788,116.457441;39.835776,116.457355;39.835761,116.457272;39.835753,116.457176;39.834851,116.457143;39.834822,116.457556;39.833475,116.457449;39.833034,116.453383","tel":""},{"title":"塔院迎春园东区1号楼","address":"北京市海淀区","location":{"lat":39.97692,"lng":116.35991000000001},"id":"622bdeac3f15367854b09267","x":{"class":"2022年03月28日 更新","level":"管控区","parent_polygon_ids":"","source":"人不出区、严禁聚集","tags":"管控区"},"_distance":8985.57812,"ud_id":"129634730881041278","polygon":"39.977045,116.358945;39.977088,116.35979;39.977107,116.360139;39.977117,116.360203;39.977378,116.36019;39.977372,116.360385;39.976842,116.360391;39.976819,116.358937;39.977045,116.358945","tel":""},{"title":"新七彩商业中心B区","address":"北京市朝阳区石佛营101号","location":{"lat":39.936787,"lng":116.507252},"id":"623120151701373c49576cf3","x":{"class":"2022年03月28日 更新","level":"管控区","parent_polygon_ids":"","source":"人不出区、严禁聚集","tags":"管控区"},"_distance":9251.08301,"ud_id":"12300800408069824231","polygon":"39.937089,116.506814;39.937206,116.507499;39.936556,116.507791;39.936297,116.506906;39.937089,116.506814","tel":""},{"title":"四元桥购物中心","address":"北京市朝阳区宜居南路2号","location":{"lat":39.9791248006224,"lng":116.461176238364},"id":"623133df8a1b7873f8383542","x":{"class":"2022年03月28日 更新","level":"管控区","parent_polygon_ids":"","source":"人不出区、严禁聚集","tags":"管控区"},"_distance":9471.19824,"ud_id":"10253302669093531653","polygon":"39.979938,116.461719;39.979877,116.461816;39.97864,116.462462;39.978234,116.462406;39.978098,116.462309;39.977913,116.461564;39.977955,116.461446;39.97881,116.460292;39.97927,116.460121;39.979508,116.460239;39.979938,116.461719","tel":""},{"title":"朝阳园1号楼","address":"北京市朝阳区","location":{"lat":39.917571,"lng":116.517758},"id":"623af636b200496ef2251718","x":{"class":"2022年03月28日 更新","level":"封控区","parent_polygon_ids":"","source":"区域封闭、足不出户、服务上门","tags":"封控区"},"_distance":9540.30469,"ud_id":"3124249145050744551","polygon":"39.917755,116.517653;39.917757,116.517834;39.917689,116.517836;39.917632,116.517949;39.917496,116.517958;39.917496,116.517917;39.91743,116.517918;39.917431,116.517838;39.917414,116.517836;39.917414,116.517714;39.917426,116.517714;39.917426,116.517617;39.917481,116.517615;39.917481,116.517572;39.917624,116.517562;39.917624,116.517602;39.917684,116.517656;39.917755,116.517653","tel":""},{"title":"朝阳园2号楼","address":"北京市朝阳区","location":{"lat":39.917933,"lng":116.517732},"id":"623af692efb469387863707e","x":{"class":"2022年03月28日 更新","level":"封控区","parent_polygon_ids":"","source":"区域封闭、足不出户、服务上门","tags":"封控区"},"_distance":9544.20898,"ud_id":"7777047928958041440","polygon":"39.917755,116.517651;39.917759,116.517834;39.917839,116.517831;39.917871,116.517866;39.917871,116.517912;39.918066,116.51791;39.918064,116.517818;39.918088,116.517814;39.918088,116.517657;39.918064,116.517657;39.918064,116.517531;39.917854,116.517539;39.917854,116.517591;39.917825,116.517646;39.917755,116.517651","tel":""},{"title":"北辰时代大厦","address":"北京市朝阳区北辰东路8号","location":{"lat":39.9909517190479,"lng":116.40661995474701},"id":"62312520f5f09777673dbacd","x":{"class":"2022年03月28日 更新","level":"管控区","parent_polygon_ids":"","source":"人不出区、严禁聚集","tags":"管控区"},"_distance":9591.99121,"ud_id":"11530678971080477974","polygon":"39.992164,116.405556;39.992193,116.405685;39.992166,116.407241;39.992133,116.407278;39.991093,116.40727;39.99083,116.407182;39.990471,116.407179;39.990464,116.407053;39.990392,116.40693;39.990417,116.406133;39.990499,116.406085;39.990563,116.405967;39.990688,116.405463;39.990734,116.405428;39.991106,116.405479;39.991854,116.405497;39.992055,116.405495;39.992164,116.405556","tel":""},{"title":"WiSH梧桐(酒仙桥店)","address":"北京市朝阳区芳园西路6号1号楼","location":{"lat":39.973653,"lng":116.480506},"id":"6231254809dcd411db7b2b79","x":{"class":"2022年03月28日 更新","level":"管控区","parent_polygon_ids":"","source":"人不出区、严禁聚集","tags":"管控区"},"_distance":9894.20508,"ud_id":"17376699414659360034","polygon":"39.973604,116.480503;39.973675,116.480574;39.973746,116.480463;39.973674,116.480379;39.973604,116.480503","tel":""},{"title":"鸿博家园一区","address":"北京市朝阳区鸿博西路","location":{"lat":39.830188,"lng":116.472748},"id":"6241298a8587f76a28799f09","x":{"class":"2022年03月28日 更新","level":"管控区","parent_polygon_ids":"","source":"人不出区、严禁聚集","tags":"管控区"},"_distance":9997.64551,"ud_id":"15426696850233953171","polygon":"39.8311,116.467781;39.828882,116.467888;39.828814,116.46787;39.82889,116.471246;39.828931,116.473577;39.829024,116.477571;39.830208,116.476691;39.830707,116.476429;39.831212,116.476233;39.831757,116.476064;39.831444,116.471598;39.831292,116.470037;39.8311,116.467781","tel":""},{"title":"中航广场","address":"北京市海淀区北三环西路43号","location":{"lat":39.971955,"lng":116.328797},"id":"622ae4472cde8b1f00a31a58","x":{"class":"2022年03月29日 更新","level":"封控区","parent_polygon_ids":"","source":"区域封闭、足不出户、服务上门","tags":"封控区"},"_distance":10029.499,"ud_id":"16207630487274583831","polygon":"39.972412,116.327551;39.972428,116.328173;39.972464,116.32884;39.972521,116.330127;39.972512,116.330165;39.971511,116.330275;39.971427,116.327582;39.972412,116.327551","tel":""},{"title":"双榆树西里7号楼7单元","address":"北京市海淀区双榆树西里","location":{"lat":39.969032,"lng":116.32411},"id":"623b0f9b03b34818042a911e","x":{"class":"2022年03月28日 更新","level":"封控区","parent_polygon_ids":"","source":"区域封闭、足不出户、服务上门","tags":"封控区"},"_distance":10066.5977,"ud_id":"8468637493053563383","polygon":"39.969081,116.324039;39.969085,116.324178;39.968986,116.324184;39.96898,116.324041;39.969081,116.324039","tel":""},{"title":"鸿博家园1区9号楼","address":"北京市朝阳区","location":{"lat":39.829052,"lng":116.475736},"id":"6231212f99532971733e2b1e","x":{"class":"2022年03月28日 更新","level":"封控区","parent_polygon_ids":"","source":"区域封闭、足不出户、服务上门","tags":"封控区"},"_distance":10246.0684,"ud_id":"9137063453803867925","polygon":"39.829218,116.475342;39.829218,116.475128;39.829109,116.475122;39.829036,116.475208;39.829041,116.475318;39.828999,116.475329;39.829016,116.476142;39.829127,116.476133;39.829113,116.475345;39.829218,116.475342","tel":""},{"title":"三义庙社区北区","address":"北京市海淀区北三环西路辅路","location":{"lat":39.96595,"lng":116.312685},"id":"6229629a5928d0119bc1ea97","x":{"class":"2022年03月28日 更新","level":"管控区","parent_polygon_ids":"","source":"人不出区、严禁聚集","tags":"管控区"},"_distance":10549.792,"ud_id":"3732812177413695526","polygon":"39.966468,116.312082;39.965307,116.312393;39.965621,116.313259;39.965985,116.313192;39.966232,116.313074;39.966608,116.312988;39.966468,116.312082","tel":""},{"title":"定慧西里","address":"北京市海淀区西翠路1号","location":{"lat":39.922418,"lng":116.282233},"id":"62311b1d09dcd411db7b201b","x":{"class":"2022年03月29日 更新","level":"防范区","parent_polygon_ids":"","source":"强化社会面管控，严格限制人员聚集","tags":"防范区"},"_distance":10836.4482,"ud_id":"14179045266417834274","polygon":"39.923954,116.284692;39.92402,116.280411;39.922712,116.28039;39.922696,116.282042;39.922523,116.281999;39.921939,116.281366;39.921552,116.281334;39.921536,116.279338;39.921034,116.279338;39.921051,116.283319;39.921478,116.283426;39.922399,116.284134;39.923164,116.284714;39.923798,116.284767;39.923954,116.284692","tel":""},{"title":"定慧西里14号楼","address":"北京市海淀区西翠路","location":{"lat":39.922868,"lng":116.281688},"id":"623118a098654b76e567ce8d","x":{"class":"2022年03月28日 更新","level":"封控区","parent_polygon_ids":"","source":"区域封闭、足不出户、服务上门","tags":"封控区"},"_distance":10891.2979,"ud_id":"8524700923499822719","polygon":"39.922944,116.281373;39.9228,116.281376;39.922792,116.282006;39.922938,116.282001;39.922944,116.281373","tel":""},{"title":"定慧西里13号楼","address":"北京市海淀区","location":{"lat":39.92319,"lng":116.281654},"id":"62311a2786f8ba16b3637d81","x":{"class":"2022年03月27日 更新","level":"管控区","parent_polygon_ids":"","source":"人不出区、严禁聚集","tags":"管控区"},"_distance":10900.8242,"ud_id":"5337341892838908943","polygon":"39.923105,116.281368;39.9231,116.281947;39.923285,116.281947;39.923273,116.281357;39.923105,116.281368","tel":""},{"title":"定慧西里15号楼","address":"北京市海淀区","location":{"lat":39.923132,"lng":116.280931},"id":"62311a4e19af3f531d5b3f5c","x":{"class":"2022年03月27日 更新","level":"管控区","parent_polygon_ids":"","source":"人不出区、严禁聚集","tags":"管控区"},"_distance":10960.1836,"ud_id":"4666533151980453535","polygon":"39.923059,116.280633;39.923067,116.281266;39.923211,116.28126;39.923191,116.280568;39.923059,116.280633","tel":""},{"title":"定慧西里16号楼","address":"北京市海淀区","location":{"lat":39.922861,"lng":116.280801},"id":"62311a8449021c33d1082ba6","x":{"class":"2022年03月28日 更新","level":"管控区","parent_polygon_ids":"","source":"人不出区、严禁聚集","tags":"管控区"},"_distance":10965.5039,"ud_id":"14099609314266363760","polygon":"39.922816,116.280488;39.922804,116.281115;39.922915,116.281115;39.922911,116.280488;39.922816,116.280488","tel":""},{"title":"北京航天总医院-二号住院楼","address":"北京市丰台区万源北路7号北京航天总医院附近","location":{"lat":39.804576,"lng":116.419756},"id":"621de02b5928d0119b7f18fa","x":{"class":"2022年03月21日 更新","level":"封控区","parent_polygon_ids":"","source":"区域封闭、足不出户、服务上门","tags":"封控区"},"_distance":11183.9092,"ud_id":"13455620338436442946","polygon":"39.804462,116.420226;39.804653,116.420221;39.80468,116.419739;39.804758,116.419747;39.804754,116.419499;39.804689,116.419363;39.804593,116.41935;39.804553,116.419359;39.804482,116.419391;39.804462,116.420226","tel":""},{"title":"望京西园1区112号楼","address":"北京市朝阳区","location":{"lat":40.003418,"lng":116.476663},"id":"62311fbd006adb3b5a3975e4","x":{"class":"2022年03月28日 更新","level":"封控区","parent_polygon_ids":"","source":"区域封闭、足不出户、服务上门","tags":"封控区"},"_distance":12474.1631,"ud_id":"4323932541406233690","polygon":"40.003568,116.477107;40.003539,116.476203;40.003268,116.476222;40.003299,116.477123;40.003568,116.477107","tel":""},{"title":"望京西园一区","address":"北京市朝阳区阜安西路与宏泰西街交叉口西北角","location":{"lat":40.00363,"lng":116.47687},"id":"623130ddbaa96039ea670d1b","x":{"class":"2022年03月29日 更新","level":"管控区","parent_polygon_ids":"","source":"人不出区、严禁聚集","tags":"管控区"},"_distance":12503.2881,"ud_id":"2512312387600912540","polygon":"40.00521,116.473434;40.005255,116.474609;40.004883,116.478247;40.003708,116.478322;40.003663,116.477174;40.002153,116.477277;40.00203,116.473828;40.002261,116.473549;40.003162,116.473498;40.003189,116.476177;40.003543,116.476194;40.00388,116.475936;40.003845,116.473489;40.00521,116.473434","tel":""},{"title":"新兴家园","address":"北京市丰台区程庄路10号","location":{"lat":39.860246,"lng":116.26664748982408},"id":"621c9271486fa86131379727","x":{"class":"2022年03月28日 更新","level":"管控区","parent_polygon_ids":"","source":"人不出区、严禁聚集","tags":"管控区"},"_distance":12968.8564,"ud_id":"8608950839544061209","polygon":"39.86075,116.265323;39.860783,116.265357;39.861039,116.267527;39.861002,116.267573;39.860028,116.267737;39.859985,116.267696;39.859923,116.267184;39.859871,116.266897;39.859851,116.266838;39.859789,116.266811;39.859727,116.26635;39.859659,116.265856;39.859653,116.265808;39.859667,116.265768;39.859649,116.265529;39.86075,116.265323","tel":""},{"title":"新兴家园4号楼","address":"北京市丰台区","location":{"lat":39.860547,"lng":116.26598},"id":"621c9271ad2967482b34e873","x":{"class":"2022年03月21日 更新","level":"封控区","parent_polygon_ids":"","source":"区域封闭、足不出户、服务上门","tags":"封控区"},"_distance":13008.8398,"ud_id":"8347478902265598368","polygon":"39.860748,116.265791;39.860309,116.265875;39.860344,116.266174;39.860787,116.266084;39.860748,116.265791","tel":""},{"title":"万科中粮·假日风景","address":"北京市丰台区大瓦窑北路与小屯西路交叉口附近","location":{"lat":39.866938,"lng":116.248916},"id":"621c9271651cba25e8754ffc","x":{"class":"2022年03月29日 更新","level":"管控区","parent_polygon_ids":"","source":"人不出区、严禁聚集","tags":"管控区"},"_distance":14140.1338,"ud_id":"8379716804371068539","polygon":"39.865784,116.252035;39.865805,116.247478;39.865469,116.247502;39.865113,116.247499;39.864265,116.247534;39.864248,116.247014;39.864265,116.246526;39.865883,116.246472;39.865904,116.245238;39.86599,116.245093;39.867444,116.245126;39.867616,116.24527;39.867608,116.247164;39.867666,116.248628;39.868436,116.248634;39.868456,116.249878;39.869053,116.249878;39.869053,116.251869;39.868983,116.251906;39.868156,116.251912;39.868148,116.251997;39.867625,116.252024;39.867625,116.252115;39.867464,116.252099;39.867415,116.25203;39.865784,116.252035","tel":""},{"title":"青青家园101号楼1和4单元","address":"北京市朝阳区","location":{"lat":39.866519,"lng":116.574393},"id":"6231854598654b76e5686b32","x":{"class":"2022年03月21日 更新","level":"封控区","parent_polygon_ids":"","source":"区域封闭、足不出户、服务上门","tags":"封控区"},"_distance":14885.8779,"ud_id":"7078296162001991968","polygon":"39.866549,116.574365;39.866513,116.574366;39.866512,116.574422;39.866552,116.574423;39.866549,116.574365","tel":""},{"title":"青青家园106号楼4单元","address":"北京市朝阳区","location":{"lat":39.865154,"lng":116.57449},"id":"6231214cd9df2f443e3b6c74","x":{"class":"2022年03月21日 更新","level":"封控区","parent_polygon_ids":"","source":"区域封闭、足不出户、服务上门","tags":"封控区"},"_distance":14937.915,"ud_id":"1273268112677606200","polygon":"39.865187,116.57447;39.865149,116.57447;39.865151,116.574515;39.865185,116.574514;39.865187,116.57447","tel":""},{"title":"青青家园102号楼1和2单元","address":"北京市朝阳区","location":{"lat":39.866467,"lng":116.575835},"id":"623121d016142171ed2222c3","x":{"class":"2022年03月21日 更新","level":"封控区","parent_polygon_ids":"","source":"区域封闭、足不出户、服务上门","tags":"封控区"},"_distance":15005.4922,"ud_id":"8852601023922392289","polygon":"39.8665,116.575812;39.866464,116.57581;39.866463,116.575862;39.866499,116.575866;39.8665,116.575812","tel":""},{"title":"青青家园113号楼2单元","address":"北京市朝阳区","location":{"lat":39.86331,"lng":116.575296},"id":"6231211c14140d261c096143","x":{"class":"2022年03月21日 更新","level":"封控区","parent_polygon_ids":"","source":"区域封闭、足不出户、服务上门","tags":"封控区"},"_distance":15065.1943,"ud_id":"2039850199752913681","polygon":"39.863346,116.575266;39.863301,116.575268;39.863304,116.575328;39.863349,116.575327;39.863346,116.575266","tel":""},{"title":"青青家园114号楼3单元","address":"北京市朝阳区","location":{"lat":39.863008,"lng":116.575404},"id":"62312072e4af2a7b9561c8d5","x":{"class":"2022年03月21日 更新","level":"封控区","parent_polygon_ids":"","source":"区域封闭、足不出户、服务上门","tags":"封控区"},"_distance":15084.2803,"ud_id":"7089309145843559059","polygon":"39.863042,116.57538;39.863002,116.575383;39.863003,116.575437;39.863044,116.575435;39.863042,116.57538","tel":""},{"title":"青青家园125号楼","address":"北京市朝阳区","location":{"lat":39.865333,"lng":116.576737},"id":"623121068587f76a286036a5","x":{"class":"2022年03月26日 更新","level":"封控区","parent_polygon_ids":"","source":"区域封闭、足不出户、服务上门","tags":"封控区"},"_distance":15115.4541,"ud_id":"5882272734258864611","polygon":"39.865254,116.57654;39.8653,116.576956;39.86541,116.576932;39.865368,116.576522;39.865254,116.57654","tel":""},{"title":"青青家园126号楼4单元","address":"北京市朝阳区","location":{"lat":39.865401,"lng":116.577462},"id":"623120968a1b7873f838122a","x":{"class":"2022年03月21日 更新","level":"封控区","parent_polygon_ids":"","source":"区域封闭、足不出户、服务上门","tags":"封控区"},"_distance":15172.4932,"ud_id":"1250427798648146892","polygon":"39.865423,116.577433;39.865379,116.577437;39.865382,116.57749;39.865423,116.577489;39.865423,116.577433","tel":""},{"title":"青青家园128号楼2单元","address":"北京市朝阳区","location":{"lat":39.86478,"lng":116.577831},"id":"623120ab34a1b048d56e44de","x":{"class":"2022年03月21日 更新","level":"封控区","parent_polygon_ids":"","source":"区域封闭、足不出户、服务上门","tags":"封控区"},"_distance":15222.6934,"ud_id":"1157645775423818382","polygon":"39.864812,116.577806;39.86477,116.577807;39.864771,116.577861;39.864812,116.577862;39.864812,116.577806","tel":""},{"title":"万科青青家园","address":"北京市朝阳区万科青青商业街","location":{"lat":39.864425,"lng":116.57868800000001},"id":"6226f8a02e36805c5caa42af","x":{"class":"2022年03月29日 更新","level":"管控区","parent_polygon_ids":"","source":"人不出区、严禁聚集","tags":"管控区"},"_distance":15304.1973,"ud_id":"10486090126486425150","polygon":"39.866713,116.573839;39.866622,116.576339;39.866252,116.576221;39.866351,116.575577;39.865091,116.575867;39.865001,116.576006;39.865034,116.576725;39.865239,116.576629;39.865363,116.576489;39.865519,116.576468;39.865643,116.579429;39.865527,116.582959;39.863308,116.582837;39.863176,116.582655;39.862562,116.574901;39.862629,116.574676;39.862778,116.574483;39.865462,116.574118;39.865527,116.573946;39.866713,116.573839","tel":""},{"title":"华瀚福园C区","address":"北京市朝阳区东坝乡南二街交叉路口华瀚福园小区C区","location":{"lat":39.960929,"lng":116.572746},"id":"62312ff334a1b048d56e59fe","x":{"class":"2022年03月29日 更新","level":"管控区","parent_polygon_ids":"","source":"人不出区、严禁聚集","tags":"管控区"},